,lat,lng,date,addr,turst
0,42.394106,-82.9474,2015/8/28,4331  BARHAM,True
1,42.395122,-83.005077,2015/8/28,9707  BESSEMORE,True
2,42.40322,-82.946476,2015/8/28,5315  BERKSHIRE,True
3,42.44664,-82.947207,2015/8/28,16670  BRINGARD DR,True
4,42.276956,-83.147536,2015/8/28,1454  BEATRICE,True
5,42.400373,-82.94705,2015/8/28,5035  BALFOUR,True
6,42.402349,-82.948348,2015/8/28,5297  BALFOUR,True
7,42.402497,-82.948445,2015/8/28,5315  BALFOUR,True
8,42.402275,-82.948299,2015/8/28,5280  BALFOUR,True
9,42.366963,-82.935172,2015/8/28,427  ASHLAND,True
10,42.401202,-82.957525,2015/8/28,5576  ALTER,True
11,42.262621,-83.155227,2015/8/28,3109  BASSETT,True
12,42.36796,-82.935829,2015/8/28,471  ASHLAND,True
13,42.406569,-82.948658,2015/8/28,5807  BERKSHIRE,True
14,42.362541,-82.951905,2015/8/28,478  ALGONQUIN,True
15,42.358253,-83.020241,2015/8/28,3716  BENSON,True
16,42.278392,-83.147524,2015/8/28,1334  ANNABELLE,True
17,,,2015/8/27,15860 W GRAND RIVER,True
18,42.394197,-82.96225,2015/8/27,13934 E WARREN,True
19,42.331215,-83.105337,2015/8/27,4503  MICHIGAN,True
20,42.395554,-82.958486,2015/8/27,14436 E WARREN,True
21,42.410142,-82.994402,2015/8/27,11793  GLENFIELD,True
22,,,2015/8/27,15703 W GRAND RIVER,True
23,42.379869,-82.94479,2015/8/27,14725  KERCHEVAL,True
24,42.359043,-83.194882,2015/8/25,8846  WHITCOMB,True
25,42.358256,-83.190986,2015/8/24,14944  JOY,True
26,42.388097,-83.223597,2015/8/24,14015  GREENVIEW,True
27,42.4204291212,-82.9811754848,2015/8/24,13982  HOUSTON-WHITTIER,True
28,42.394395,-83.197214,2015/8/24,14511  PREST,True
29,42.377099,-83.099983,2015/8/24,9138  ROSA PARKS BLVD,True
30,42.395306,-83.152558,2015/8/24,8340  LYNDON,True
31,42.352845,-83.22234,2015/8/21,8256  GREENVIEW,True
32,42.384108,-83.000815,2015/8/21,5330  COOPER,True
33,42.429416,-82.948812,2015/8/21,12292  LANSDOWNE,True
34,42.436887,-83.00792,2015/8/21,19346  TEPPERT,True
35,42.434521,-83.055831,2015/8/21,19188  HEALY,True
36,42.364271,-82.982692,2015/8/21,1626  HURLBUT,True
37,42.396811,-83.025281,2015/8/21,7350  ROLAND,True
38,42.390169,-82.965488,2015/8/21,4703  DICKERSON,True
39,42.444146,-83.068884,2015/8/21,20230  REVERE,True
40,42.433468,-83.202172,2015/8/21,19370  MONTROSE,True
41,42.359918,-82.938935,2015/8/21,208  NEWPORT,True
42,42.444305,-83.068892,2015/8/21,20244  REVERE,True
43,42.444551,-83.068903,2015/8/21,20265  REVERE,True
44,42.436519,-83.059967,2015/8/21,19373  SHIELDS,True
45,42.391925,-82.936736,2015/8/21,3661  HAVERHILL,True
46,42.366594,-82.938963,2015/8/21,462  MARLBOROUGH,True
47,42.443821,-83.175555,2015/8/21,20400  WARD,True
48,42.443517,-83.068844,2015/8/21,20175  REVERE,True
49,42.33746,-83.216955,2015/8/21,6411  ASHTON,True
50,42.42049,-83.071903,2015/8/21,17251  MITCHELL,True
51,42.427,-83.060608,2015/8/21,18111  SUNSET,True
52,42.430658,-83.213969,2015/8/21,19130  LINDSAY,True
53,42.370787,-82.97995,2015/8/21,2595  MONTCLAIR,True
54,42.436352,-83.059957,2015/8/21,19356  SHIELDS,True
55,42.420074,-83.058237,2015/8/21,17214  JUSTINE,True
56,42.381964,-83.00245,2015/8/21,5151  BELVIDERE,True
57,42.421876,-83.031337,2015/8/21,6874  BRIMSON,True
58,42.354371,-83.240701,2015/8/21,8456  FIELDING,True
59,42.43427,-83.080492,2015/8/21,19201  LUMPKIN,True
60,42.364587,-83.169102,2015/8/21,9365  APPOLINE,True
61,42.36146,-83.20351,2015/8/21,9133  MANSFIELD,True
62,42.403667,-82.987104,2015/8/21,12011  ELMDALE,True
63,42.384834,-83.220941,2015/8/21,13558  PENROD,True
64,42.359049,-83.19276,2015/8/21,8842  COYLE,True
65,42.35688,-83.190541,2015/8/21,8533  TERRY,True
66,42.35891,-83.190514,2015/8/21,8849  TERRY,True
67,42.3908,-83.250267,2015/8/21,14301  WESTBROOK,True
68,42.359543,-82.986376,2015/8/21,1316  BELVIDERE,True
69,42.415913,-83.188376,2015/8/21,16919  STRATHMOOR,True
70,42.37716,-83.005905,2015/8/21,4776  BURNS,True
71,42.378756,-83.009585,2015/8/21,5096  IROQUOIS,True
72,42.445469,-83.048594,2015/8/21,20288  BUFFALO,True
73,42.434959,-83.028559,2015/8/21,19190  CLIFF,True
74,42.434298,-83.214105,2015/8/21,19463  LINDSAY,True
75,42.373978,-83.007397,2015/8/21,4448  SEMINOLE,True
76,42.414321,-83.149979,2015/8/21,16624  WOODINGHAM,True
77,42.443215,-83.061498,2015/8/21,20111  SUNSET,True
78,42.434966,-83.059872,2015/8/21,19231  SHIELDS,True
79,42.436868,-83.213154,2015/8/21,19783  GILCHRIST,True
80,42.388841,-82.968587,2015/8/21,4654  ALGONQUIN,True
81,42.39863,-82.937518,2015/8/21,4391  THREE MILE DR,True
82,42.444214,-83.068887,2015/8/21,20236  REVERE,True
83,42.35982,-83.189464,2015/8/21,8921  LAUDER,True
84,42.357311,-83.195861,2015/8/21,8588  PREST,True
85,42.433951,-83.05981,2015/8/21,19145  SHIELDS,True
86,42.436103,-83.025341,2015/8/21,19311  STOTTER,True
87,,,2015/8/21,10803  STRATMANN,True
88,,,2015/8/21,15408  WEST PARKWAY,True
89,42.413534,-82.958763,2015/8/21,10418  WAYBURN,True
90,42.407649,-82.948196,2015/8/21,5919  BUCKINGHAM,True
91,42.387677,-83.237969,2015/8/21,13982  VAUGHAN,True
92,42.366623,-82.952292,2015/8/21,713  CONTINENTAL,True
93,,,2015/8/21,13803 E SEVEN MILE,True
94,42.345917,-83.114665,2015/8/20,4440  MCGRAW,True
95,42.353948,-83.191417,2015/8/20,8236  ROBSON,True
96,42.36469,-83.188546,2015/8/20,9394  MARLOWE,True
97,42.361866,-83.142932,2015/8/20,9015  PRAIRIE,True
98,42.42070248,-82.97640183,2015/8/20,14241  HOUSTON-WHITTIER,True
99,42.437551,-82.987646,2015/8/20,19360  HICKORY,True
100,42.431431,-82.99106,2015/8/20,18630  FAIRPORT,True
101,42.431993,-82.992311,2015/8/20,18694  WESTPHALIA,True
102,42.377082,-83.119584,2015/8/20,3233  CALVERT,True
103,42.440332,-82.982885,2015/8/20,19655  RENO,True
104,42.362632,-83.193969,2015/8/20,9235  SUSSEX,True
105,42.367197,-83.116484,2015/8/20,3728  GLADSTONE,True
106,42.424406,-82.986127,2015/8/20,12754  ALCOY,True
107,42.441458,-83.086832,2015/8/20,20015  RIOPELLE,True
108,42.365239,-83.127742,2015/8/20,9007  BEVERLY CT,True
109,42.363343,-83.029673,2015/8/20,3362 E WILLIS,True
110,42.342845,-83.10673,2015/8/20,1465 W GRAND BLVD,True
111,42.409305,-83.065132,2015/8/20,2962  MCLEAN,True
112,42.390881,-83.073735,2015/8/20,9737  CAMERON,True
113,42.384327,-83.009876,2015/8/20,5721  FISCHER,True
114,42.37102,-83.001469,2015/8/20,3879  BURNS,True
115,42.398212,-83.04013,2015/8/20,6008  COMSTOCK,True
116,42.408393,-83.069816,2015/8/20,12850  ARLINGTON,True
117,42.364163,-83.188514,2015/8/20,9346  MARLOWE,True
118,42.419381,-83.077182,2015/8/20,17181  ARLINGTON,True
119,42.367229,-83.114019,2015/8/20,3292  CARTER,True
120,42.443114,-82.993974,2015/8/20,19953  GOULBURN,True
121,42.413737,-83.004503,2015/8/20,11275  MINDEN,True
122,42.376123,-83.140915,2015/8/20,7039  ELMHURST,True
123,42.445696,-83.093075,2015/8/20,20430  HAWTHORNE,True
124,42.377995,-83.005295,2015/8/20,4827  FISCHER,True
125,42.371233,-83.015995,2015/8/20,4495  FIELD,True
126,42.370842,-83.001341,2015/8/20,3856  BURNS,True
127,42.415914,-83.040555,2015/8/20,13404  DWYER,True
128,42.410249,-83.071356,2015/8/20,2439  DEARING,True
129,42.355219,-83.190467,2015/8/20,8353  TERRY,True
130,42.364104,-83.191793,2015/8/20,9359  ROBSON,True
131,42.360093,-83.10922,2015/8/20,3299  HOGARTH,True
132,42.384901,-83.117874,2015/8/20,2667  MONTEREY,True
133,42.362759,-83.116619,2015/8/20,4024 W EUCLID,True
134,42.374345,-83.012837,2015/8/20,4784  SEYBURN,True
135,42.368207,-83.008593,2015/8/20,3750  SEYBURN,True
136,42.374629,-82.94275,2015/8/20,1052  PHILIP,True
137,42.33671,-83.130197,2015/8/20,5287  DANIELS,True
138,42.416325,-83.04057,2015/8/20,13463  DWYER,True
139,42.409027,-83.040354,2015/8/20,11630  DWYER,True
140,42.363226,-83.180037,2015/8/20,9262  DECATUR,True
141,42.418107,-83.041804,2015/8/20,13716  GABLE,True
142,42.342272,-83.100124,2015/8/20,4541  25TH,True
143,,,2015/8/20,8584  MARK TWAIN,True
144,42.363544,-83.164244,2015/8/20,9263  MENDOTA,True
145,42.359571,-83.190539,2015/8/20,8947  TERRY,True
146,42.360831,-83.037572,2015/8/20,4232  CHENE,True
147,42.374185,-82.944982,2015/8/20,1185  CHALMERS,True
148,42.373499,-82.945899,2015/8/20,1060  LAKEWOOD,True
149,42.37036,-83.012895,2015/8/20,4072  TOWNSEND,True
150,42.364692,-83.118517,2015/8/20,4058  BLAINE,True
151,42.374038,-83.160687,2015/8/20,11638  ILENE,True
152,42.351381,-83.091947,2015/8/20,5261  STANTON,True
153,42.441128,-83.103827,2015/8/20,20020  DERBY,True
154,42.363507,-83.116973,2015/8/20,4025- W PHILADELPHIA,True
155,42.377092,-83.130053,2015/8/20,11645  OTSEGO,True
156,42.429732,-83.10735,2015/8/20,404 W ROBINWOOD,True
157,42.431633,-83.251125,2015/8/20,19330  BLACKSTONE,True
158,42.342542,-83.1014,2015/8/20,4585  ROOSEVELT,True
159,42.345552,-83.115584,2015/8/20,4516  MCGRAW,True
160,42.416409,-83.041728,2015/8/20,13476  GABLE,True
161,42.354354,-83.191436,2015/8/20,8270  ROBSON,True
162,42.342709,-83.116459,2015/8/20,5223  31ST,True
163,42.416623,-83.04058,2015/8/20,13505  DWYER,True
164,42.364698,-83.113931,2015/8/20,8511  DEXTER,True
165,42.328766,-83.133464,2015/8/20,4385  51ST,True
166,42.365204,-82.935275,2015/8/20,352  MANISTIQUE,True
167,42.400451,-83.038911,2015/8/20,6243  EDWIN,True
168,42.362171,-83.141843,2015/8/20,9086  BURNETTE,True
169,42.412193,-83.060387,2015/8/20,12604  MORAN,True
170,42.334836,-83.149891,2015/8/20,5848  OGDEN,True
171,42.32407341,-83.11758492,2015/8/20,6438  JOHN KRONK,True
172,42.377367,-83.156703,2015/8/20,12033  INDIANA,True
173,42.365522,-83.118663,2015/8/20,4044  CARTER,True
174,42.424625,-83.089841,2015/8/20,17844  RUSSELL,True
175,42.432025,-83.253558,2015/8/20,19318  BENTLER,True
176,42.355694,-83.031642,2015/8/20,3473  GRANDY,True
177,42.418075,-83.040629,2015/8/20,13709  DWYER,True
178,42.33313,-83.078874,2015/8/17,2628  15TH,True
179,42.435284,-83.029735,2015/8/13,19230  ROGGE,True
180,42.377681,-83.006284,2015/8/13,4856  BURNS,True
181,42.405681,-83.0684,2015/8/13,2420  MCPHERSON,True
182,42.438373,-82.951286,2015/8/13,16308  CORAM,True
183,42.437462,-82.952414,2015/8/13,16253  LAPPIN,True
184,42.315157,-83.130517,2015/8/13,8009  BELLE,True
185,42.407735,-83.141539,2015/8/13,15817  STOEPEL,True
186,42.440093,-82.957009,2015/8/13,15908  LIBERAL,True
187,42.440076,-82.95775,2015/8/13,15848  LIBERAL,True
188,,,2015/8/13,10852  STRATMANN,True
189,42.370985,-83.019856,2015/8/13,6941  GRATIOT,True
190,42.438364,-82.951912,2015/8/13,16276  CORAM,True
191,42.438326,-82.954413,2015/8/13,16117  CORAM,True
192,42.409385,-83.058468,2015/8/13,12267  MORAN,True
193,,,2015/8/13,3955  MT ELLIOTT,True
194,42.353017,-83.229677,2015/8/13,8286  GRANDVILLE,True
195,42.361002,-83.014987,2015/8/13,3118  CONCORD,True
196,42.35086,-83.238127,2015/8/13,8040  HEYDEN,True
197,42.408533,-83.065002,2015/8/13,2925  HALLECK,True
198,42.354894,-83.240719,2015/8/13,8515  FIELDING,True
199,42.349755,-83.213938,2015/8/13,7811  LONGACRE,True
200,42.407282,-83.063983,2015/8/13,2936  MCPHERSON,True
201,42.42163,-83.240409,2015/8/13,18100  HEYDEN,True
202,42.333258,-83.231347,2015/8/13,6038  MINOCK,True
203,42.351142,-83.238138,2015/8/13,8076  HEYDEN,True
204,42.375689,-83.009889,2015/8/13,4853  MAXWELL,True
205,42.439926,-83.0889609,2015/8/13,15231 E STATE FAIR,True
206,42.435687,-83.010152,2015/8/13,19231  ALGONAC,True
207,42.349363,-83.200198,2015/8/13,7720  FORRER,True
208,42.438124,-82.963446,2015/8/13,15293  CORAM,True
209,42.374034,-83.241302,2015/8/13,12000  FIELDING,True
210,42.410078,-83.0563,2015/8/13,3911  SOBIESKI,True
211,42.415403,-83.060254,2015/8/13,13400  RYAN,True
212,42.322198,-83.107478,2015/8/13,2532  CAMPBELL,True
213,42.414052,-83.061652,2015/8/13,13184  MORAN,True
214,42.437129,-83.010198,2015/8/13,19375  ALGONAC,True
215,42.409592,-83.070952,2015/8/13,2402  LAWLEY,True
216,42.362898,-83.009001,2015/8/13,3064  SHERIDAN,True
217,42.410952,-83.050235,2015/8/13,5141  GARVIN,True
218,42.361845,-83.005945,2015/8/13,2901  BALDWIN,True
219,42.354605,-83.218777,2015/8/13,8437  ROSEMONT,True
220,42.360328,-83.110991,2008/12/15,7703  DEXTER,True
221,42.345917,-83.114665,2008/12/15,4440  MCGRAW,True
222,42.328919,-83.122097,2008/12/15,3903  CICOTTE,True
223,42.329186,-83.127211,2008/12/15,6846  PARKWOOD,True
224,42.33182,-83.129384,2008/12/15,4655  BRADEN,True
225,42.324213,-83.118671,2008/12/15,3228  CICOTTE,True
226,,,2008/12/15,4720  THREE MILE,True
227,42.408929,-83.244129,2008/12/15,16191  PATTON,True
228,42.421406,-83.089717,2008/12/15,17378  RUSSELL,True
229,42.421451,-83.089719,2008/12/15,17392  RUSSELL,True
230,42.422908,-83.090982,2008/12/15,17615  CARDONI,True
231,42.406291,-82.947303,2008/12/15,5709  BUCKINGHAM,True
232,42.443884,-83.06782,2008/12/15,20207  NORWOOD,True
233,42.439595,-83.069594,2008/12/15,19706  KLINGER,True
234,42.428868,-83.061799,2008/12/15,18481  DEAN,True
235,42.443017,-83.071822,2008/12/15,20131  CHAREST,True
236,42.428828,-83.061797,2008/12/15,18454  DEAN,True
237,42.326186,-83.11677,2008/12/15,3401  LIVERNOIS,True
238,42.362512,-83.192905,2008/12/15,9200  COYLE,True
239,42.341573,-83.217098,2008/12/15,6826  ASHTON,True
240,42.384344,-83.163183,2008/12/15,13167  BIRWOOD,True
241,42.405445,-83.153477,2008/12/15,15464  NORTHLAWN,True
242,42.364684,-83.113921,2008/12/15,8508  DEXTER,True
243,42.423038,-83.090988,2008/12/15,17598  CARDONI,True
244,42.424164,-83.091037,2008/12/15,17815  CARDONI,True
245,42.435642,-83.067314,2008/12/15,19300  NORWOOD,True
246,42.325319,-83.132387,2008/12/15,7417  EDWARD,True
247,42.329023,-83.139594,2008/12/15,4705  LUMLEY,True
248,42.332931,-83.12483,2008/12/15,4435  CICOTTE,True
249,42.327793,-83.119645,2008/12/15,3665  GILBERT,True
250,42.440404,-83.096197,2008/12/15,19944  OMIRA,True
251,42.420744,-83.088453,2008/12/15,17315  HULL,True
252,42.39343,-82.938901,2008/12/15,3935  BUCKINGHAM,True
253,42.403424,-82.945436,2008/12/15,5291  BUCKINGHAM,True
254,42.443537,-83.071853,2008/12/15,20173  CHAREST,True
255,42.332842,-83.138811,2008/12/15,5048  CENTRAL,True
256,42.325064,-83.12576,2008/12/15,6931  MERCIER,True
257,42.329762,-83.131895,2008/12/15,4410  EWERS,True
258,42.334657,-83.119855,2008/12/15,4545  HAMMOND,True
259,42.413366,-83.256178,2008/12/15,16820  GREYDALE,True
260,42.363926,-83.113409,2008/12/15,8401  DEXTER,True
261,42.419912,-83.088414,2008/12/15,17210  HULL,True
262,42.405199,-82.946591,2008/12/15,5582  BUCKINGHAM,True
263,42.404826,-82.94635,2008/12/15,5510  BUCKINGHAM,True
264,42.443563,-83.067801,2008/12/15,20180  NORWOOD,True
265,42.445132,-83.05066,2008/12/15,20286  MOENART,True
266,42.395194,-82.940054,2008/12/15,4201  BUCKINGHAM,True
267,42.438712,-83.071534,2008/12/15,19602  CHAREST,True
268,42.437487,-83.058997,2008/12/15,19460  JUSTINE,True
269,42.429054,-83.058562,2008/12/15,18490  JUSTINE,True
270,42.328382,-83.12704,2008/12/15,6880  WALDO,True
271,42.332012,-83.129533,2008/12/15,4669  BRADEN,True
272,42.409996,-83.241954,2008/12/15,16503  STOUT,True
273,42.369037,-83.116876,2008/12/15,9031  DEXTER,True
274,42.356312,-83.113544,2008/12/15,4228  LARCHMONT,True
275,42.369003,-83.116854,2008/12/15,9016  DEXTER,True
276,42.421471,-83.089719,2008/12/15,17398  RUSSELL,True
277,42.406921,-82.947717,2008/12/15,5807  BUCKINGHAM,True
278,42.444459,-83.070909,2008/12/15,20263  GALLAGHER,True
279,42.44317,-83.077614,2008/12/15,20153  GODDARD,True
280,42.412528,-83.040472,2008/12/15,12843  DWYER,True
281,42.404903,-82.9464,2008/12/15,5501  BUCKINGHAM,True
282,42.403424,-82.945436,2008/12/15,5291  BUCKINGHAM,True
283,42.335009,-83.128907,2008/12/15,4969  DANIELS,True
284,42.335813,-83.118846,2008/12/15,4640  WESSON,True
285,42.423061,-83.090989,2008/12/15,17604  CARDONI,True
286,42.424635,-83.092277,2008/12/15,17920  HAWTHORNE,True
287,42.42346,-83.042298,2008/12/15,17565  GABLE,True
288,42.411912,-83.042163,2008/12/15,5926  CHARLES,True
289,42.332224,-83.134137,2008/12/15,4847  CHOPIN,True
290,42.387432,-83.168672,2008/12/15,13635  MEYERS,True
291,42.358594,-83.118403,2008/12/15,4413  OREGON,True
292,42.355392,-83.11246,2008/12/15,6808  SCOTTEN,True
293,42.419301,-83.087164,2008/12/15,17193  GREELEY,True
294,42.421491,-83.08972,2008/12/15,17404  RUSSELL,True
295,42.424106,-83.091035,2008/12/15,17809  CARDONI,True
296,42.338833,-83.213309,2008/12/15,6530  LONGACRE,True
297,42.44594,-83.067931,2008/12/15,20418  NORWOOD,True
298,42.44467,-83.050642,2008/12/15,20241  MOENART,True
299,42.444944,-83.050652,2008/12/15,20271  MOENART,True
300,42.443991,-83.070883,2008/12/15,20221  GALLAGHER,True
301,42.326375,-83.124707,2008/12/15,6829  CLAYTON,True
302,42.325387,-83.118497,2008/12/15,6419  OTIS,True
303,42.404825,-82.931758,2008/12/15,4893  GRAYTON,True
304,42.341128,-83.111971,2008/12/15,4921  28TH,True
305,42.386958,-83.155038,2008/12/15,13501  OHIO,True
306,42.446259,-83.094119,2008/12/15,20486  CAMERON,True
307,42.364871,-83.114048,2008/12/15,8535  DEXTER,True
308,42.356261,-83.113682,2008/12/15,4238  LARCHMONT,True
309,42.355308,-83.112457,2008/12/15,6802  SCOTTEN,True
310,42.405636,-83.131501,2008/12/15,15456  PARKSIDE,True
311,42.444136,-83.09403,2008/12/15,20260  CAMERON,True
312,42.435768,-83.073601,2008/12/15,19323  HARNED,True
313,42.365546,-83.114505,2008/11/15,8630  DEXTER,True
314,42.366666,-83.143475,2008/11/15,9515  PRAIRIE,True
315,42.339066,-83.129368,2008/11/15,6503  GLADYS,True
316,42.305204,-83.117964,2008/11/15,1137  SOLVAY,True
317,42.353579,-83.117946,2008/11/15,4719  TIREMAN,True
318,42.354767,-83.095434,2008/11/15,5758  LINWOOD,True
319,42.345561,-83.11325,2008/11/15,5361  LOVETT,True
320,42.339719,-83.127706,2008/11/15,6351  GLADYS,True
321,42.354538,-83.115377,2008/11/15,4428  TIREMAN,True
322,42.336333,-83.129913,2008/11/15,5239  DANIELS,True
323,42.345464,-83.113182,2008/11/15,5353  LOVETT,True
324,42.333159,-83.139038,2008/11/15,5095  CENTRAL,True
325,42.333922,-83.137582,2008/11/15,5263  PROCTOR,True
326,42.416722,-83.238263,2008/11/15,17223  EVERGREEN,True
327,42.354602,-83.115207,2008/11/15,4406  TIREMAN,True
328,42.381942,-83.067189,2008/11/15,8447  CAMERON,True
329,42.356338,-83.096418,2008/11/15,6021  LINWOOD,True
330,42.338261,-83.128895,2008/11/15,6509  DEVEREAUX,True
331,42.338407,-83.131506,2008/11/15,5501  DANIELS,True
332,42.336002,-83.136884,2008/11/15,5453  CHOPIN,True
333,42.357906,-83.097827,2008/11/15,6144  LINWOOD,True
334,,,2008/11/15,6450 W EDSEL FORD,True
335,42.345949,-83.114582,2008/11/15,4433  MCGRAW,True
336,42.334807,-83.13927,2008/11/15,5468  FLORIDA,True
337,42.352094,-83.110253,2008/11/15,1830 W GRAND BLVD,True
338,42.378235,-83.236552,2008/11/15,12400  EVERGREEN,True
339,42.364899,-83.114067,2008/11/15,8538  DEXTER,True
340,42.366566,-83.144499,2008/11/15,9511  AMERICAN,True
341,42.335519,-83.136533,2008/11/15,5416  CHOPIN,True
342,42.363493,-83.113115,2008/11/15,8340  DEXTER,True
343,42.333608,-83.15139,2008/11/15,5746  LAWNDALE,True
344,42.337978,-83.131179,2008/11/15,5443  DANIELS,True
345,42.359825,-83.109927,2008/11/15,3359  HOGARTH,True
346,42.31099952,-83.13176386,2008/10/15,2416  WENDELL,True
347,42.31099952,-83.13176386,2008/10/15,2416  WENDELL,True
348,42.30805189,-83.10798227,2008/10/15,1057  CASGRAIN,True
349,42.3347499,-83.13917843,2008/10/15,5454  FLORIDA,True
350,42.33987496,-83.12741626,2008/10/15,6340  GLADYS,True
351,42.33300989,-83.14130903,2008/10/15,5141  SPRINGWELLS,True
352,42.31382043,-83.12928467,2008/10/15,2559  CARSON,True
353,42.33987496,-83.12741626,2008/10/15,6340  GLADYS,True
354,42.33300989,-83.14130903,2008/10/15,5141  SPRINGWELLS,True
355,42.31382043,-83.12928467,2008/10/15,2559  CARSON,True
356,42.3347499,-83.13917843,2008/10/15,5454  FLORIDA,True
357,42.30805189,-83.10798227,2008/10/15,1057  CASGRAIN,True
358,42.33423782,-83.14085637,2008/10/15,5474  CASPER,True
359,42.37269051,-83.12151122,2008/10/15,9709  MCQUADE,True
360,42.36042226,-83.11107054,2008/10/15,7713  DEXTER,True
361,42.31023171,-83.13129253,2008/10/15,2333  WENDELL,True
362,42.33417634,-83.14207308,2008/10/15,5444  SPRINGWELLS,True
363,42.33330866,-83.14152646,2008/10/15,5163  SPRINGWELLS,True
364,42.36936359,-83.13209275,2008/10/15,9700  NARDIN,True
365,42.31023171,-83.13129253,2008/10/15,2333  WENDELL,True
366,42.36042226,-83.11107054,2008/10/15,7713  DEXTER,True
367,42.36936359,-83.13209275,2008/10/15,9700  NARDIN,True
368,42.33423782,-83.14085637,2008/10/15,5474  CASPER,True
369,42.33410731,-83.142023,2008/10/15,5424  SPRINGWELLS,True
370,42.33924835,-83.12879084,2008/10/15,6457  GLADYS,True
371,42.31226773,-83.12098712,2008/10/15,7301  SENATOR,True
372,42.30962562,-83.11894736,2008/10/15,7282  LANE,True
373,42.3689691,-83.13179052,2008/10/15,9666  NARDIN,True
374,42.33189654,-83.15010083,2008/10/15,5609  LAWNDALE,True
375,42.30972537,-83.13304589,2008/10/15,2350  LAWNDALE,True
376,42.33330866,-83.14152646,2008/10/15,5163  SPRINGWELLS,True
377,42.33189654,-83.15010083,2008/10/15,5609  LAWNDALE,True
378,42.3689691,-83.13179052,2008/10/15,9666  NARDIN,True
379,42.30962562,-83.11894736,2008/10/15,7282  LANE,True
380,42.33417634,-83.14207308,2008/10/15,5444  SPRINGWELLS,True
381,42.37269051,-83.12151122,2008/10/15,9709  MCQUADE,True
382,42.31226773,-83.12098712,2008/10/15,7301  SENATOR,True
383,42.33924835,-83.12879084,2008/10/15,6457  GLADYS,True
384,42.33410731,-83.142023,2008/10/15,5424  SPRINGWELLS,True
385,42.30972537,-83.13304589,2008/10/15,2350  LAWNDALE,True
386,42.35512314,-83.00991289,2008/7/15,2141  CANTON,True
387,42.35090973,-83.23938826,2008/7/15,8067  STOUT,True
388,42.38949192,-83.00924187,2008/7/15,18090  JAMES COUZENS,True
389,42.35532395,-83.02366974,2008/7/15,3381  CHARLEVOIX,True
390,42.41150432,-83.05800107,2008/7/15,3826  CHARLES,True
391,42.36140358,-83.00937165,2008/7/15,3057  FIELD,True
392,42.35515993,-83.01112977,2008/7/15,2199  CONCORD,True
393,42.35744382,-83.01266566,2008/7/15,2471  CONCORD,True
394,42.35714612,-83.02087184,2008/7/15,3670  ARNDT,True
395,42.36058879,-83.02595347,2008/7/15,3462  PULFORD,True
396,42.41448937,-83.04853093,2008/7/15,13276  BLOOM,True
397,42.41417052,-83.04761052,2008/7/15,13223  BUFFALO,True
398,42.41711116,-83.14569818,2008/7/15,7429 W MCNICHOLS,True
399,42.36156037,-83.00801708,2008/7/15,2992  SHERIDAN,True
400,42.35097601,-83.23939084,2008/7/15,8075  STOUT,True
401,42.42277705,-83.24275937,2008/7/15,18227  STOUT,True
402,42.35084346,-83.23938568,2008/7/15,8059  STOUT,True
403,42.36193767,-83.00601658,2008/7/15,2927  BALDWIN,True
404,42.41429883,-83.04754097,2008/7/15,13242  BUFFALO,True
405,42.41433589,-83.0476151,2008/7/15,13249  BUFFALO,True
406,42.40536287,-83.06775297,2008/7/15,12230  ARLINGTON,True
407,42.42327597,-82.95874479,2008/7/15,11936  RIAD,True
408,42.40648533,-82.96334454,2008/7/15,9157  PHILIP,True
409,42.35090973,-83.23938826,2008/7/15,8067  STOUT,True
410,42.35069434,-83.23937988,2008/7/15,8041  STOUT,True
411,42.35104228,-83.23939342,2008/7/15,8083  STOUT,True
412,42.42514439,-83.25425092,2008/7/15,21483  MARGARETA,True
413,42.35532395,-83.02366974,2008/7/15,3381  CHARLEVOIX,True
414,42.41150432,-83.05800107,2008/7/15,3826  CHARLES,True
415,42.35084346,-83.23938568,2008/7/15,8059  STOUT,True
416,42.36251075,-83.00632268,2008/7/15,3058  BALDWIN,True
417,42.35760923,-83.0053701,2008/7/15,2242  SHERIDAN,True
418,42.40796449,-83.14058779,2008/7/15,15829  LIVERNOIS,True
419,42.43323222,-83.25356505,2008/7/15,19436  BENTLER,True
420,42.35069434,-83.23937988,2008/7/15,8041  STOUT,True
421,42.35104228,-83.23939342,2008/7/15,8083  STOUT,True
422,42.42514439,-83.25425092,2008/7/15,21483  MARGARETA,True
423,42.34135189,-83.08069397,2008/7/15,3739  WABASH,True
424,42.34135189,-83.08069397,2008/7/15,3739  WABASH,True
425,42.36251075,-83.00632268,2008/7/15,3058  BALDWIN,True
426,42.38949192,-83.00924187,2008/7/15,18090  JAMES COUZENS,True
427,42.43323222,-83.25356505,2008/7/15,19436  BENTLER,True
428,42.40796449,-83.14058779,2008/7/15,15829  LIVERNOIS,True
429,42.35760923,-83.0053701,2008/7/15,2242  SHERIDAN,True
430,42.36058879,-83.02595347,2008/7/15,3462  PULFORD,True
431,42.35714612,-83.02087184,2008/7/15,3670  ARNDT,True
432,42.35512314,-83.00991289,2008/7/15,2141  CANTON,True
433,42.35744382,-83.01266566,2008/7/15,2471  CONCORD,True
434,42.35515993,-83.01112977,2008/7/15,2199  CONCORD,True
435,42.36140358,-83.00937165,2008/7/15,3057  FIELD,True
436,42.41448937,-83.04853093,2008/7/15,13276  BLOOM,True
437,42.41417052,-83.04761052,2008/7/15,13223  BUFFALO,True
438,42.41711116,-83.14569818,2008/7/15,7429 W MCNICHOLS,True
439,42.36156037,-83.00801708,2008/7/15,2992  SHERIDAN,True
440,42.35097601,-83.23939084,2008/7/15,8075  STOUT,True
441,42.42277705,-83.24275937,2008/7/15,18227  STOUT,True
442,42.36193767,-83.00601658,2008/7/15,2927  BALDWIN,True
443,42.41429883,-83.04754097,2008/7/15,13242  BUFFALO,True
444,42.41433589,-83.0476151,2008/7/15,13249  BUFFALO,True
445,42.40536287,-83.06775297,2008/7/15,12230  ARLINGTON,True
446,42.42327597,-82.95874479,2008/7/15,11936  RIAD,True
447,42.40648533,-82.96334454,2008/7/15,9157  PHILIP,True
448,42.44374159,-83.00261021,2008/5/15,20011  ANNOTT,True
449,42.33250309,-83.04975362,2008/5/15,12923 E STATE FAIR,True
450,42.33250309,-83.04975362,2008/5/15,13047 E STATE FAIR,True
451,42.44383174,-82.95534964,2008/5/15,16026  ROSSINI DRIVE,True
452,42.43150423,-82.98500063,2008/5/15,18613  SCHOENHERR,True
453,42.43642836,-82.98520417,2008/5/15,19213  SCHOENHERR,True
454,42.43227929,-82.9810029,2008/5/15,13910  SARATOGA,True
455,42.37105722,-82.98472133,2008/5/15,2966  GARLAND,True
456,42.44162582,-82.9747484,2008/5/15,14440  TACOMA,True
457,42.4416288,-82.97455452,2008/5/15,14452  TACOMA,True
458,42.33250309,-83.04975362,2008/5/15,13430 E STATE FAIR,True
459,42.43200121,-82.98502407,2008/5/15,18649  SCHOENHERR,True
460,42.4414254,-82.98513245,2008/5/15,13611  TACOMA,True
461,42.37773599,-83.00388078,2008/5/15,4809  CRANE,True
462,42.44130954,-82.98985721,2008/5/15,13225  TACOMA,True
463,42.44386204,-82.95375171,2008/5/15,16110  ROSSINI DRIVE,True
464,42.4437723,-82.9586399,2008/5/15,15716  ROSSINI DRIVE,True
465,42.43507524,-82.99236704,2008/5/15,19126  WESTPHALIA,True
466,42.44003857,-82.97365728,2008/5/15,14519  LIBERAL,True
467,42.44168717,-82.97426893,2008/5/15,14467  TACOMA,True
468,42.37765855,-83.00382393,2008/5/15,4797  CRANE,True
469,42.37039712,-82.98432356,2008/5/15,2921  GARLAND,True
470,42.43276952,-82.98506171,2008/5/15,18817  SCHOENHERR,True
471,42.3887053973,-82.9428220796,2008/4/15,3568  BEACONSFIELD,True
472,42.44373475,-83.0646748,2008/4/15,20222  BINDER,True
473,42.44339904,-83.04946248,2008/4/15,20096  BLOOM,True
474,42.4449362282,-83.049526906,2008/4/15,20292  BLOOM,True
475,42.44504654,-83.04975319,2008/4/15,20315  BLOOM,True
476,42.44181803,-83.04937094,2008/4/15,19920  BLOOM,True
477,42.40065575,-82.95096166,2008/4/15,5218  BEACONSFIELD,True
478,42.40069341,-82.95098684,2008/4/15,5226  BEACONSFIELD,True
479,42.4178531,-83.05335235,2008/4/15,4863  DELTA,True
480,42.4155458993,-83.2537144228,2008/4/15,17146  CHAPEL,True
481,,,2008/4/15,2251 W DAVISON,True
482,42.43785971,-83.03099025,2008/4/15,19471  CARRIE,True
483,42.43653772,-83.06543402,2008/4/15,19405  WEXFORD,True
484,42.44647253,-83.04958118,2008/4/15,20534  BLOOM,True
485,42.44499413,-83.04975124,2008/4/15,20305  BLOOM,True
486,42.34031407,-83.20091331,2008/4/15,6730  RUTHERFORD,True
487,42.43630043,-83.03071704,2008/4/15,19324  CARRIE,True
488,42.43612254,-83.0644259,2008/4/15,19345  BINDER,True
489,42.4363110403,-83.0654201678,2008/4/15,19373  WEXFORD,True
490,42.4364455503,-83.0652059597,2008/4/15,19390  WEXFORD,True
491,42.44334538,-83.04968325,2008/4/15,20091  BLOOM,True
492,42.4008534832,-82.9510938591,2008/4/15,5260  BEACONSFIELD,True
493,42.44487881,-83.04974696,2008/4/15,20283  BLOOM,True
494,42.43465198,-83.06531911,2008/4/15,19223  WEXFORD,True
495,42.4466459,-83.04958627,2008/4/15,20562  BLOOM,True
496,42.40250632,-82.95244561,2008/4/15,5559  BEACONSFIELD,True
497,42.43781344,-83.03098876,2008/4/15,19463  CARRIE,True
498,42.39325676,-83.07153561,2008/4/15,10215  RUSSELL,True
499,42.44371066,-83.06565556,2008/4/15,20220  WEXFORD,True
500,42.4364668859,-83.0654296913,2008/4/15,19395  WEXFORD,True
501,42.4446217315,-83.0495152282,2008/4/15,20232  BLOOM,True
502,42.44482091,-83.04952262,2008/4/15,20270  BLOOM,True
503,42.40090998,-82.95113163,2008/4/15,5272  BEACONSFIELD,True
504,42.40095706,-82.95116311,2008/4/15,5282  BEACONSFIELD,True
505,42.33804137,-83.23403297,2008/4/15,6541  PLAINVIEW,True
506,42.42301809,-83.2428915,2008/4/15,18255  STOUT,True
507,42.35091045,-83.21876248,2008/4/15,8027  ROSEMONT,True
508,42.3406852,-83.19845797,2008/4/15,6780  MONTROSE,True
509,37.3779119,-121.8443683,2008/4/15,21456  SANTA CLARA,True
510,42.44495219,-83.04974968,2008/4/15,20297  BLOOM,True
511,42.4358363356,-83.0651687315,2008/4/15,19304  WEXFORD,True
512,42.44505154,-83.04953119,2008/4/15,20314  BLOOM,True
513,42.44350391,-83.04969242,2008/4/15,20111  BLOOM,True
514,42.40088173,-82.95111275,2008/4/15,5266  BEACONSFIELD,True
515,42.434775,-83.00357639,2008/4/15,19125  ROWE,True
516,42.38723371,-83.23557846,2008/4/15,13976  PLAINVIEW,True
517,42.44217896,-83.04961541,2008/4/15,19971  BLOOM,True
518,42.4385476,-83.06457193,2008/4/15,19657  BINDER,True
519,42.39450495,-82.94685645,2008/4/15,4414  BEACONSFIELD,True
520,42.39973188,-82.95034479,2008/4/15,5114  BEACONSFIELD,True
521,42.082217,-83.3006419,2008/4/15,19191  HELEN,True
522,42.082217,-83.3006419,2008/4/15,20126  HELEN,True
523,42.34147848,-83.19871386,2008/4/15,6899  MONTROSE,True
524,42.43650222,-83.06520942,2008/4/15,19398  WEXFORD,True
525,42.44134755,-83.06451918,2008/4/15,19972  BINDER,True
526,42.41774902,-83.05362847,2008/4/15,4833  DELTA,True
527,42.42747033,-83.00301038,2008/4/15,18050  ROWE,True
528,42.35965888,-83.24463715,2008/4/15,9049  PIERSON,True
529,42.4178322857,-83.0534075714,2008/3/15,4857  DELTA,True
530,42.4177698367,-83.0535732449,2008/3/15,4839  DELTA,True
531,42.33358813,-83.14157235,2008/3/15,5428  SPRINGWELLS,True
532,42.41779065,-83.05351802,2008/3/15,4845  DELTA,True
533,42.36415333,-83.17168391,2015/7/31,9331  SORRENTO,True
534,42.36478748,-83.17024416,2015/7/31,9392  STEEL,True
535,42.39512495,-83.18535044,2015/7/31,14551  FREELAND,True
536,42.40267135,-83.1876969,2015/7/31,15382  STRATHMOOR,True
537,42.3630160404,-83.1691785758,2015/7/31,9249  APPOLINE,True
538,42.36953835,-83.16792612,2015/7/31,9944  MEYERS,True
539,42.38135641,-83.16960146,2015/7/31,12726  APPOLINE,True
540,42.35907345,-83.16784701,2015/7/31,8833  MEYERS,True
541,42.3673912362,-83.1680815075,2015/7/31,9695  MEYERS,True
542,42.36472576,-83.17046459,2015/7/31,9387  STEEL,True
543,18.384517,-66.0666328,2015/7/31,20054  SAN JUAN,True
544,42.41963541,-83.16143295,2015/7/31,17400  WASHBURN,True
545,42.42546537,-83.23767238,2015/7/31,18571  PLAINVIEW,True
546,44.3172,-84.7796889,2015/7/31,19766  HOUGHTON,True
547,42.4238712,-83.22036482,2015/7/31,18305  ASHTON,True
548,41.4547749,-82.0043145,2015/7/31,20019  AVON,True
549,42.2715384848,-83.1621333434,2015/7/31,12831  OMAHA,True
550,42.36727629,-83.16785593,2015/7/31,9676  MEYERS,True
551,42.3851705,-82.1650106,2015/7/31,16824  CHATHAM,True
552,39.763736,-86.1326869,2015/7/31,20507  INDIANA,True
553,42.3630475556,-83.1714358889,2015/7/31,9254  SORRENTO,True
554,42.3620327,-83.16792775,2015/7/31,9171  MEYERS,True
555,42.37638471,-83.16815765,2015/7/31,12080  MEYERS,True
556,42.36964024,-83.16792941,2015/7/31,9952  MEYERS,True
557,42.37009871,-83.16794424,2015/7/31,9988  MEYERS,True
558,42.411727,-83.185847,2015/7/31,16500  FREELAND,True
559,42.36555047,-83.21437429,2015/7/31,9561  LONGACRE,True
560,42.36644764,-83.16805292,2015/7/31,9551  MEYERS,True
561,42.36398738,-83.16920374,2015/7/31,9309  APPOLINE,True
562,42.4167980041,-83.2471506042,2015/7/31,17282  PIERSON,True
563,42.3595855302,-83.1691049664,2015/7/31,8911  APPOLINE,True
564,42.40360278,-83.17822831,2015/7/31,15387  HARTWELL,True
565,,,2015/7/31,7594 E ROBINWOOD,True
566,14.663906,121.0593029,2015/7/31,19925  PRAIRIE,True
567,42.44439373,-83.14522207,2015/7/31,20465  MONICA,True
568,38.039956,-84.4693149,2015/7/31,20500  MANOR,True
569,39.833983,-100.1865549,2015/7/31,9554  DECATUR,True
570,39.833983,-100.1865549,2015/7/31,9560  DECATUR,True
571,38.039956,-84.4693149,2015/7/31,20525  KENTUCKY,True
572,-26.2073783,28.338827,2015/7/31,9288  WARD,True
573,42.40770734,-83.13048801,2015/7/31,15798  ALDEN,True
574,42.35983184,-83.17742505,2015/7/31,8920  SCHAEFER,True
575,42.36920724,-83.16791541,2015/7/31,9918  MEYERS,True
576,42.44507872,-83.09394081,2015/7/31,20416  CAMERON,True
577,42.3737135,-83.17425464,2015/7/31,11690  CHEYENNE,True
578,42.3643196,-83.17756553,2015/7/31,9360  SCHAEFER,True
579,42.368978,-83.167908,2015/7/31,9900  MEYERS,True
580,42.36938553,-83.16792118,2015/7/31,9932  MEYERS,True
581,42.36439676,-83.17409585,2015/7/31,9361  CHEYENNE,True
582,42.37172673,-83.16799589,2015/7/31,11386  MEYERS,True
583,42.37591521,-83.16814039,2015/7/31,12024  MEYERS,True
584,42.38644437,-83.16875913,2015/7/31,13565  MEYERS,True
585,42.39263627,-83.19243364,2015/7/31,14370  ROBSON,True
586,42.44365131,-83.16458688,2015/7/31,20434  GRIGGS,True
587,42.3626083,-83.17142421,2015/7/31,9220  SORRENTO,True
588,42.36465059,-83.17410662,2015/7/31,9387  CHEYENNE,True
589,42.36162644,-83.17139811,2015/7/31,9144  SORRENTO,True
590,42.36314523,-83.16918206,2015/7/31,9259  APPOLINE,True
591,42.36180815,-83.17526021,2015/7/31,9165  LITTLEFIELD,True
592,42.36338078,-83.16896633,2015/7/31,9276  APPOLINE,True
593,42.37666476,-83.16839012,2015/7/31,12115  MEYERS,True
594,42.44004611,-83.15570423,2015/7/31,20000  CHERRYLAWN,True
595,,,2015/7/31,16501  LOG CABIN,True
596,42.43876121,-83.1511616,2015/7/31,8024  PEMBROKE,True
597,18.384517,-66.0666328,2015/7/31,16551  SAN JUAN,True
598,18.384517,-66.0666328,2015/7/31,20212  SAN JUAN,True
599,,,2015/7/31,20030  SANTA ROSA,True
600,42.37606612,-83.16814594,2015/7/31,12042  MEYERS,True
601,42.3712312,-83.16798008,2015/7/31,11310  MEYERS,True
602,42.37919,-83.168482,2015/7/31,12700  FOLEY,True
603,42.425256,-83.25346,2015/7/31,21400  MARGARETA,True
604,-26.2073783,28.338827,2015/7/31,14929  WARD,True
605,42.4230775,-83.24059191,2015/7/31,18255  HEYDEN,True
606,42.43506436,-83.24626147,2015/7/31,19716  BRAILE,True
607,42.4247856985,-83.275144402,2015/7/31,18544  RIVERVIEW,True
608,,,2015/7/31,9663  MARK TWAIN,True
609,42.4040954966,-83.1891255034,2015/7/31,15467  HUBBELL,True
610,42.41694662,-83.24595409,2015/7/31,17294  BRAILE,True
611,42.36350697,-83.16919182,2015/7/31,9287  APPOLINE,True
612,14.663906,121.059302908,2015/7/31,20241  PRAIRIE,True
613,42.3689913448,-83.1681305608,2015/7/31,9915  MEYERS,True
614,42.4070790201,-83.1375651558,2015/7/31,15773  HOLMUR,True
615,38.039956,-84.4693149,2015/7/31,20200  KENTUCKY,True
616,42.36319991,-83.16896145,2015/7/31,9262  APPOLINE,True
617,42.3781668081,-83.1684426364,2015/7/31,12283  MEYERS,True
618,42.37822055,-83.16844445,2015/7/31,12291  MEYERS,True
619,42.43929488,-83.15345639,2015/7/31,19949  ROSELAWN,True
620,42.3668307,-83.16784244,2015/7/31,9608  MEYERS,True
621,42.350846,-83.205349,2015/7/31,16300  TIREMAN,True
622,42.37579784,-83.16813608,2015/7/31,12010  MEYERS,True
623,42.44463158,-83.15221594,2015/7/31,20506  GREENLAWN,True
624,42.36399173,-83.17385645,2015/7/31,9318  CHEYENNE,True
625,42.37017512,-83.16794671,2015/7/31,9994  MEYERS,True
626,42.40177506,-83.20952363,2015/7/31,15325  FERGUSON,True
627,42.37165003,-83.17067383,2015/7/31,11405  STEEL,True
628,42.37648531,-83.16816134,2015/7/31,12092  MEYERS,True
629,42.3768039,-83.16817305,2015/7/31,12130  MEYERS,True
630,42.37381775,-83.16828703,2015/7/31,11689  MEYERS,True
631,42.36429509,-83.17045303,2015/7/31,9343  STEEL,True
632,42.37345297,-83.17667267,2015/7/31,11650  HARTWELL,True
633,42.36152009,-83.17161736,2015/7/31,9137  SORRENTO,True
634,42.36361529,-82.99480137,2015/7/31,2472  FISCHER,True
635,-26.2073783,28.338827,2015/7/31,9220  WARD,True
636,42.35412252,-83.23350265,2015/7/30,8403  AUBURN,True
637,42.34006243,-83.23267495,2015/7/30,6760  AUBURN,True
638,42.34057978,-83.23269769,2015/7/30,6836  AUBURN,True
639,42.3453474472,-83.2233430402,2015/7/30,7425  BRACE,True
640,42.4017423,-83.2275964,2015/7/30,8442  ARTESIAN,True
641,42.35269688,-83.21763006,2015/7/30,8221  ASHTON,True
642,42.352304,-83.233205,2015/7/30,8200  AUBURN,True
643,42.35266666,-83.2332201,2015/7/30,8246  AUBURN,True
644,,,2015/7/30,8472  BRACE,False
645,42.35071049,-83.24551252,2015/7/30,8057  BURT RD,True
646,42.35098375,-83.22119632,2015/7/30,8041  FAUST,True
647,,,2015/7/30,12074  EVERGREEN,False
648,,,2015/7/30,8116  FAUST,False
649,,,2015/7/30,8673  FAUST,False
650,,,2015/7/30,7512  MEMORIAL,False
651,,,2015/7/30,9618  MINOCK,False
652,42.4017423,-83.2275964,2015/7/30,8085  ARTESIAN,True
653,,,2015/7/30,8317  AUBURN,False
654,,,2015/7/30,14882  BEAVERLAND,False
655,42.35834196,-83.22146255,2015/7/30,8859  FAUST,True
656,42.35650157,-83.2223774,2015/7/30,8656  GREENVIEW,True
657,42.34433594,-83.2377795,2015/7/30,7330  HEYDEN,True
658,,,2015/7/30,8112  HEYDEN,False
659,42.36148261,-83.23832131,2015/7/30,9218  HEYDEN,True
660,42.34868458,-83.20275867,2015/7/30,7731  MANSFIELD,True
661,42.35285694,-83.22104533,2015/7/30,8248  FAUST,True
662,,,2015/7/30,6900  MINOCK,False
663,42.34771687,-83.23178972,2015/7/30,7690  MINOCK,True
664,42.35815915,-83.23242637,2015/7/30,8855  MINOCK,True
665,42.37508191,-83.23280712,2015/7/30,12097  MINOCK,True
666,42.35442379,-83.23206909,2015/7/30,8438  MINOCK,True
667,42.39191493,-83.26013687,2015/7/30,14406  DACOSTA,True
668,42.34854545,-83.21511648,2015/7/30,7731  ARCHDALE,True
669,42.35656535,-83.23360316,2015/7/30,8685  AUBURN,True
670,42.37256242,-83.23394948,2015/7/30,11707  AUBURN,True
671,,,2015/7/30,8045  BRACE,False
672,,,2015/7/30,8909  FAUST,False
673,42.35466674,-83.24547035,2015/7/30,8500  BURT RD,True
674,42.34722396,-83.23810477,2015/7/30,7641  HEYDEN,True
675,42.34408782,-83.21149064,2015/7/30,7248  CLAYBURN,True
676,,,2015/7/30,7290  CLAYBURN,False
677,42.38711322,-83.25877982,2015/7/30,13994  DOLPHIN,True
678,,,2015/7/30,6894  EVERGREEN,False
679,42.35444418,-83.22110122,2015/7/30,8408  FAUST,True
680,,,2015/7/30,8649  ARTESIAN,False
681,,,2015/7/30,8221  ASHTON,False
682,42.35445239,-83.21769353,2015/7/30,8403  ASHTON,True
683,,,2015/7/30,9601  AUBURN,False
684,,,2015/7/30,12099  AUBURN,False
685,,,2015/7/30,7340  BRACE,False
686,42.35298813,-83.22957245,2015/7/30,8280  GRANDVILLE,True
687,,,2015/7/30,7458  CLAYBURN,False
688,,,2015/7/30,14391  DOLPHIN,False
689,,,2015/7/30,14542  DOLPHIN,False
690,,,2015/7/30,6310  EVERGREEN,False
691,,,2015/7/30,7703  FAUST,False
692,,,2015/7/30,8681  FAUST,False
693,,,2015/7/30,7232  MINOCK,False
694,42.35795506,-83.23850004,2015/7/30,8841  HEYDEN,True
695,42.34376533,-83.23775894,2015/7/30,7264  HEYDEN,True
696,42.34364802,-83.21469815,2015/7/30,7234  ARCHDALE,True
697,42.349485,-83.21493044,2015/7/30,7810  ARCHDALE,True
698,42.35627571,-83.21753896,2015/7/30,8620  ASHTON,True
699,42.35494982,-83.23331491,2015/7/30,8508  AUBURN,True
700,,,2015/7/30,7369  BRACE,False
701,,,2015/7/30,8107  BRACE,False
702,,,2015/7/30,8909  GREENVIEW,False
703,,,2015/7/30,8281  HEYDEN,False
704,,,2015/7/30,15100  DACOSTA,False
705,42.35463952,-83.21770035,2015/7/30,8429  ASHTON,True
706,42.34015273,-83.23290114,2015/7/30,6775  AUBURN,True
707,42.35494982,-83.23331491,2015/7/30,8508  AUBURN,True
708,,,2015/7/30,8516  AUBURN,False
709,,,2015/7/30,8634  AUBURN,False
710,,,2015/7/30,8114  BRACE,False
711,42.34407296,-83.20253669,2015/7/30,7235  MANSFIELD,True
712,,,2015/7/30,14007  DOLPHIN,False
713,,,2015/7/30,8611  MINOCK,False
714,42.35336987,-83.22247939,2015/7/30,8317  GREENVIEW,True
715,42.35432688,-83.24326414,2015/7/30,8451  BRAILE,True
716,42.35437576,-83.23329099,2015/7/30,8434  AUBURN,True
717,42.37236429,-83.23249404,2015/7/30,11660  MINOCK,True
718,42.35274671,-83.22104144,2015/7/30,8234  FAUST,True
719,42.35269946,-83.22103978,2015/7/30,8228  FAUST,True
720,,,2015/7/30,6333  EVERGREEN,False
721,42.39378573,-83.2589872,2015/7/30,14586  DOLPHIN,True
722,42.35493188,-83.23817681,2015/7/30,8516  HEYDEN,True
723,42.35516988,-83.22232674,2015/7/30,8516  GREENVIEW,True
724,42.35142514,-83.22218218,2015/7/30,8098  GREENVIEW,True
725,42.35108892,-83.24552924,2015/7/30,8105  BURT RD,True
726,,,2015/7/30,8900  BRACE,False
727,42.35291064,-83.22363118,2015/7/30,8261  BRACE,True
728,42.35145534,-83.22335252,2015/7/30,8104  BRACE,True
729,,,2015/7/30,8099  BRACE,False
730,42.4017423,-83.2275964,2015/7/30,6354  ARTESIAN,True
731,,,2015/7/29,6430  HANSON,False
732,,,2015/7/29,5369  30TH,False
733,42.44001247,-82.97785847,2015/7/29,19622  ANVIL,True
734,,,2015/7/29,5690  28TH,False
735,,,2015/7/29,6436  HANSON,False
736,42.31034221,-83.11942182,2015/7/29,7268  CAHALAN,True
737,,,2015/7/29,4710  MARTIN,False
738,42.43349718,-83.10637548,2015/7/29,19231  DANBURY,True
739,,,2015/7/29,5444  FLORIDA,False
740,42.38074601,-82.98103543,2015/7/29,4110  BENITEAU,True
741,,,2015/7/29,7227  LANE,False
742,,,2015/7/29,5259  PROCTOR,False
743,15.1512684,120.5650084,2015/7/29,5461  CENTRAL,True
744,42.36266415,-83.17506421,2015/7/29,9230  LITTLEFIELD,True
745,42.33349045,-83.13715471,2015/7/29,5238  PROCTOR,True
746,,,2015/7/29,16886  BILTMORE,False
747,42.3370642,-83.12918922,2015/7/29,6569  HANSON,True
748,,,2015/7/28,1481  14TH,False
749,42.35954908,-83.18958292,2015/7/28,8959  LAUDER,True
750,39.833983,-100.1865549,2015/7/27,9421  DECATUR,True
751,42.35946903,-83.18933996,2015/7/27,8950  LAUDER,True
752,42.33798382,-83.21709059,2015/7/27,6507  ASHTON,True
753,42.36115964,-83.19380591,2015/7/27,9136  SUSSEX,True
754,,,2015/7/27,17025  CHICAGO,False
755,42.36253539,-83.19185372,2015/7/27,9201  ROBSON,True
756,42.364704,-83.2360389,2015/7/27,17010  CHICAGO,True
757,,,2015/7/27,11822  SCHAEFER,False
758,,,2015/7/27,9186  COYLE,False
759,,,2015/7/27,15231  CHICAGO,False
760,,,2015/7/27,6561  MONTROSE,False
761,42.37809899,-83.16098587,2015/7/27,12175  ILENE,True
762,,,2015/7/27,16633  CHICAGO,False
763,42.33990795,-83.23638492,2015/7/27,6746  VAUGHAN,True
764,42.340797,-83.23172367,2015/7/27,6867  MINOCK,True
765,,,2015/7/27,6499  AUBURN,False
766,42.36840818,-83.17793215,2015/7/27,9903  SCHAEFER,True
767,39.833983,-100.1865549,2015/7/27,9379  DECATUR,True
768,42.36085368,-83.1937937,2015/7/27,9110  SUSSEX,True
769,42.36440571,-83.19306506,2015/7/27,9407  COYLE,True
770,42.353657,-83.1784859,2015/7/27,9173  CARLIN,True
771,42.36124878,-83.19403167,2015/7/27,9145  SUSSEX,True
772,42.36843328,-83.17793306,2015/7/27,9915  SCHAEFER,True
773,,,2015/7/27,9201  WHITCOMB,False
774,42.3405942,-83.22909063,2015/7/27,6830  GRANDVILLE,True
775,42.34002159,-83.23267316,2015/7/27,6754  AUBURN,True
776,42.33755592,-83.22425021,2015/7/27,6467  STAHELIN,True
777,42.278015,-83.1573625,2015/7/27,11118  SCHAEFER,True
778,,,2015/7/27,11656  SCHAEFER,False
779,42.34002299,-83.22432817,2015/7/27,6737  STAHELIN,True
780,42.36397731,-83.18973192,2015/7/27,9329  LAUDER,True
781,42.33790399,-83.2194838,2015/7/27,6501  PENROD,True
782,42.334598,-83.220593,2015/7/27,6201  FAUST,True
783,42.33811942,-83.21709538,2015/7/27,6523  ASHTON,True
784,42.35916823,-83.1893259,2015/7/27,8910  LAUDER,True
785,42.35905614,-83.17147006,2015/7/27,8841  SORRENTO,True
786,42.36208387,-83.17889593,2015/7/27,9223  CARLIN,True
787,39.833983,-100.1865549,2015/7/27,9344  DECATUR,True
788,42.33596,-83.234999,2015/7/27,6300  EVERGREEN,True
789,42.36404455,-83.18973418,2015/7/27,9337  LAUDER,True
790,42.35431266,-83.1575544,2015/7/27,8210  WYOMING,True
791,,,2015/7/27,8069  WYOMING,False
792,,,2015/7/27,8899  TERRY,False
793,42.364704,-83.2360389,2015/7/27,15633  CHICAGO,True
794,42.360736,-83.193789,2015/7/27,9100  SUSSEX,True
795,42.364704,-83.2360389,2015/7/27,16520  CHICAGO,True
796,42.36424807,-83.17896458,2015/7/27,9359  CARLIN,True
797,42.36173947,-83.17866274,2015/7/27,9140  CARLIN,True
798,42.33738228,-83.22679341,2015/7/27,6451  WARWICK,True
799,42.36883483,-83.17772646,2015/7/27,9928  SCHAEFER,True
800,42.36379339,-83.17872864,2015/7/27,9312  CARLIN,True
801,42.34037942,-83.222949,2015/7/27,6786  BRACE,True
802,42.34028495,-83.21934504,2015/7/27,6766  PENROD,True
803,42.3685546,-83.17793747,2015/7/27,9973  SCHAEFER,True
804,42.34120543,-83.20488574,2015/7/27,6871  METTETAL,True
805,,,2015/7/27,11110  SCHAEFER,False
806,,,2015/7/27,16340  TIREMAN,False
807,42.36383452,-83.19412251,2015/7/27,9353  SUSSEX,True
808,42.364704,-83.2360389,2015/7/27,16124  CHICAGO,True
809,42.34028893,-83.23639942,2015/7/27,6802  VAUGHAN,True
810,,,2015/7/27,8518 W GRAND RIVER,False
811,42.3335924,-83.23147501,2015/7/27,6095  MINOCK,True
812,42.33767054,-83.2313858,2015/7/27,6492  MINOCK,True
813,42.364704,-83.2360389,2015/7/27,16641  CHICAGO,True
814,42.36389515,-83.19412372,2015/7/27,9359  SUSSEX,True
815,42.36218967,-83.17889933,2015/7/27,9229  CARLIN,True
816,39.833983,-100.1865549,2015/7/27,9158  DECATUR,True
817,,,2015/7/24,9095  AMERICAN,False
818,42.4076092,-83.0779956,2015/7/23,7740  CHRYSLER,True
819,40.1646274,-80.2287709,2015/7/23,4811-  PENNSYLVANIA,True
820,42.36502597,-83.16922676,2015/7/23,9415  APPOLINE,True
821,42.40902627,-83.0173065,2015/7/23,8344  LYFORD,True
822,42.43611708,-82.97418385,2015/7/23,14423  MADDELEIN,True
823,42.38001572,-83.00351,2015/7/23,5030  ROHNS,True
824,42.37664244,-83.12285283,2015/7/23,3765  COLLINGWOOD,True
825,42.39717076,-83.00854115,2015/7/23,9108  RAYMOND,True
826,42.36536861,-83.13603881,2015/7/23,5016  RIDGEWOOD,True
827,,,2015/7/23,9829 31 MCQUADE,False
828,,,2015/7/23,1704-  06 INFANTRY,False
829,42.44076336,-82.98231913,2015/7/23,13839  MANNING,True
830,42.42991554,-83.16736871,2015/7/23,18940  PINEHURST,True
831,42.4076092,-83.0779956,2015/7/23,7740  CHRYSLER,True
832,,,2015/7/23,3310  MONTEREY,False
833,42.43517279,-83.10150923,2015/7/23,19333  COVENTRY,True
834,42.4076092,-83.0779956,2015/7/23,7740  CHRYSLER,True
835,-3.9452096,-79.2185416,2015/7/23,6126  CANTON,True
836,,,2015/7/23,15033  LITTLEFIELD,False
837,,,2015/7/22,5101  CENTRAL,False
838,42.33283053,-83.13981136,2015/7/22,5130  CASPER,True
839,42.33281384,-83.1398003,2015/7/22,5124  CASPER,True
840,,,2015/7/22,5432  PROCTOR,False
841,42.30931519,-83.13380353,2015/7/22,2338  CABOT,True
842,42.357771,-83.10914478,2015/7/22,7356  DEXTER,True
843,42.34356141,-83.11830226,2015/7/22,5374  32ND,True
844,,,2015/7/22,8518  DEXTER,False
845,,,2015/7/22,5441  CENTRAL,False
846,42.3654419,-83.11456073,2015/7/22,8603  DEXTER,True
847,,,2015/7/22,5338  31ST,False
848,15.1512684,120.5650084,2015/7/22,5449  CENTRAL,True
849,42.36830914,-83.11650747,2015/7/22,8917  DEXTER,True
850,42.34314814,-83.11800459,2015/7/22,5344  32ND,True
851,,,2015/7/21,13907  SARATOGA,False
852,,,2015/7/21,19935  ANNOTT,False
853,,,2015/7/21,20043  ROWE,False
854,,,2015/7/21,19954  ANNOTT,False
855,,,2015/7/21,19945  ANNOTT,False
856,,,2015/7/21,13829  GLENWOOD,False
857,,,2015/7/21,19967  ROWE,False
858,,,2015/7/21,19625  HAMBURG,False
859,,,2015/7/21,13914  EASTWOOD,False
860,,,2015/7/21,14470  NOVARA,False
861,,,2015/7/20,16117  CORAM,False
862,,,2015/7/16,19166  GILCHRIST,False
863,,,2015/7/16,1157  GRAY,False
864,,,2015/7/16,18476  PARKSIDE,False
865,,,2015/7/16,2600  MACK,False
866,,,2015/7/15,61 E MCNICHOLS,False
867,,,2015/7/15,6181 W WARREN,False
868,,,2015/7/15,5536 E MCNICHOLS,False
869,,,2015/7/15,4801  ELMHURST,False
870,,,2015/7/13,11507  FINDLAY,False
871,,,2015/7/13,11175  FINDLAY,False
872,42.41303101,-83.0016444,2015/7/13,11465  FINDLAY,True
873,42.41203689,-83.00446941,2015/7/13,11167  FINDLAY,True
874,,,2015/7/13,11151  FINDLAY,False
875,,,2015/7/13,11501  FINDLAY,False
876,42.41209362,-83.00430825,2015/7/13,11187  FINDLAY,True
877,42.41297646,-83.00128346,2015/7/13,11490  FINDLAY,True
878,42.3981525,-83.25563009,2015/7/13,15039  GREYDALE,True
879,42.41112696,-83.0044598,2015/7/13,11077  WHITHORN,True
880,,,2015/7/13,11487  FINDLAY,False
881,42.41300945,-83.00170577,2015/7/13,11459  FINDLAY,True
882,42.41313883,-83.00133755,2015/7/13,11495  FINDLAY,True
883,42.41289739,-83.00150848,2015/7/13,11468  FINDLAY,True
884,,,2007/10/15,8851  BRACE,False
885,42.41708,-83.0506619,2007/10/15,13700  KEYSTONE,True
886,20.6555017,-103.3503161,2007/10/15,2429  GRAND,True
887,44.7340108,-122.1497982,2007/10/15,4654  OREGON,True
888,,,2007/10/15,7612 E HILDALE,False
889,,,2007/10/15,6460  EAGLE,False
890,42.3692169,-83.16551068,2007/10/15,10028  PINEHURST,True
891,42.40418678,-83.26465233,2007/10/15,15713  BRAMELL,True
892,,,2007/10/15,14927  TACOMA,False
893,,,2007/10/15,17212  STRASBURG,False
894,,,2007/10/15,12660  SANTA ROSA,False
895,42.41605078,-83.05645311,2007/10/15,13473  JUSTINE,True
896,42.3831549,-82.99747707,2007/10/15,5103  CADILLAC,True
897,42.43550075,-82.98075283,2007/10/15,19131  HOYT,True
898,42.42546676,-82.98287937,2007/10/15,13661  CEDARGROVE,True
899,42.3905819,-83.17007133,2007/10/15,14139  APPOLINE,True
900,,,2007/10/15,8837  GRATIOT BLD 103-105,False
901,42.40598173,-82.97181314,2007/10/15,13304  WADE,True
902,42.38228282,-83.12238265,2007/10/15,3280  ELMHURST,True
903,42.0022672,-83.3085419,2007/10/15,305  NEWPORT,True
904,42.40260671,-83.15880321,2007/10/15,8940  FENKELL,True
905,42.44302034,-83.1037947,2007/10/15,20212  DERBY,True
906,42.36143154,-83.13491059,2007/10/15,5550  WHITFIELD,True
907,,,2007/10/15,8150  MT OLIVET,False
908,42.3820241,-83.12258424,2007/10/15,3329  ELMHURST,True
909,42.42062209,-82.99176545,2007/10/15,12490  BARLOW,True
910,42.4394356,-82.9680837,2007/10/15,14955  NOVARA,True
911,42.370381,-83.195164,2007/10/15,11300  WHITCOMB,True
912,42.4178531,-83.05335235,2007/10/15,4863  DELTA,True
913,42.38660914,-82.95265067,2007/10/15,14423  MACK,True
914,42.34619367,-83.13970533,2007/10/15,7327  WETHERBY,True
915,,,2007/10/15,9140  FRENCH RD,False
916,,,2007/10/15,128 W ARIZONA,False
917,42.082217,-83.3006419,2007/10/15,7887  HELEN,True
918,34.5032498,-93.0336312,2007/10/15,4474  GARLAND,True
919,,,2007/10/15,504 W WINCHESTER,False
920,,,2007/10/15,9687  AMERICAN,False
921,,,2007/10/15,5721  28TH,False
922,42.374075,-83.12074229,2007/10/15,3784  ROCHESTER,True
923,,,2007/10/15,10008  CASCADE,False
924,42.4443735,-83.2004956,2007/10/15,19940  GREENFIELD,True
925,42.3767361,-82.96062612,2007/10/15,2548  ALGONQUIN,True
926,,,2007/10/15,4037-  BLAINE,False
927,42.42360533,-83.04133689,2007/10/15,17645  DWYER,True
928,42.37309604,-83.2070989,2007/10/15,11710  ASBURY PARK,True
929,,,2007/10/15,4538  PACIFIC,False
930,42.41343565,-82.99739074,2007/10/15,11800  WHITHORN,True
931,,,2007/10/15,15761  WEST PARKWAY,False
932,,,2007/10/15,15877  BEAVERLAND,False
933,42.34597837,-83.14053484,2007/10/15,7292-  BURNETTE,True
934,42.40885371,-82.97918649,2007/10/15,12823  CHELSEA,True
935,42.36777511,-83.13172733,2007/10/15,5180  CHICAGO,True
936,42.34864581,-83.11422551,2007/10/15,6102  STANFORD,True
937,,,2007/10/15,18516  FAIRPORT,False
938,39.6205965,-90.676732,2007/10/15,2643  PARK,True
939,42.40378322,-82.98985068,2007/10/15,11808  LONGVIEW,True
940,42.40266628,-83.24484397,2007/10/15,15436  BRAILE,True
941,42.3840434,-83.11996855,2007/10/15,2941  MONTEREY,True
942,39.6205965,-90.676732,2007/10/15,2643  PARK,True
943,42.404013,-83.260777,2007/10/15,15701  DACOSTA,True
944,42.38513145,-83.01533474,2007/10/15,5980  SEMINOLE,True
945,42.37264576,-82.9960055,2007/10/15,3879  BELVIDERE,True
946,42.35869607,-83.02260799,2007/10/15,3620  ELBA PL,True
947,42.43930034,-82.97398322,2007/9/15,14487  NOVARA,True
948,38.039956,-84.4693149,2007/9/15,14269  KENTUCKY,True
949,42.43336173,-83.09690127,2007/9/15,19172  YACAMA,True
950,,,2007/9/15,11131  KERCHEVAL,False
951,,,2007/9/15,14093  SARATOGA,False
952,42.39183898,-83.08291854,2007/9/15,285  HARMON,True
953,,,2007/9/15,19974  OAKFIELD,False
954,42.37305609,-83.21457757,2007/9/15,11733  LONGACRE,True
955,42.41306211,-82.99138837,2007/9/15,12141  FLANDERS,True
956,42.36558555,-83.14101723,2007/9/15,9429  MONICA,True
957,42.39893409,-83.12034268,2007/9/15,2239  KENDALL,True
958,42.39684032,-83.11417717,2007/9/15,1939  CLEMENTS,True
959,42.40317523,-82.97560164,2007/9/15,12829  HAMPSHIRE,True
960,42.36957936,-83.10996956,2007/9/15,2909-  GLADSTONE,True
961,,,2007/9/15,6195  WOODHALL,False
962,,,2007/9/15,5921  SENECA,False
963,14.663906,121.0593029,2007/9/15,8885  PRAIRIE,True
964,42.42079677,-82.97040118,2007/9/15,14765  HOUSTON-WHITTIER,True
965,,,2007/9/15,14743  HOUSTON-WHITTIER,False
966,42.44561635,-83.00132944,2007/9/15,20226  BRADFORD,True
967,,,2007/9/15,19747  HAMBURG,False
968,42.44385883,-83.00392462,2007/9/15,20027  ROWE,True
969,42.34398591,-83.10021582,2007/9/15,4819  24TH,True
970,42.40210514,-82.9888955,2007/9/15,11799  CORBETT,True
971,,,2007/9/15,18054  HAMBURG,False
972,,,2007/9/15,7627  SHERWOOD-AKA 7629 SHERWOOD,False
973,,,2007/9/15,14500  LIBERAL,False
974,,,2007/9/15,19792  WALTHAM,False
975,42.43520767,-82.99476852,2007/9/15,19148  WALTHAM,True
976,,,2007/9/15,19320  HAMBURG,False
977,42.38891698,-83.25883244,2007/9/15,14150  DOLPHIN,True
978,42.35203541,-83.11358022,2007/9/15,6503  HARTFORD,True
979,41.6596267,-83.5735141,2007/9/15,4053  ROOSEVELT,True
980,,,2007/9/15,19300  HAMBURG,False
981,42.27413413,-83.146857,2007/9/15,1665  ETHEL,True
982,42.40087778,-82.94622192,2007/9/15,5075  CHATSWORTH,True
983,42.41755888,-83.01035075,2007/9/15,11056  PORTLANCE,True
984,42.401458,-82.9935249,2007/9/15,12428  CONNER,True
985,42.43703265,-82.97531998,2007/9/15,14403  LAPPIN,True
986,42.44379673,-83.00392227,2007/9/15,20019  ROWE,True
987,42.43439504,-82.97747437,2007/9/15,14209  FORDHAM,True
988,42.43423202,-82.97770903,2007/9/15,14192  FORDHAM,True
989,42.44073545,-82.97343227,2007/9/15,14536  MANNING,True
990,,,2007/9/15,14480  TROESTER,False
991,42.39979536,-83.03890845,2007/9/15,6209  NORWALK,True
992,42.43213564,-82.97664744,2007/9/15,14253  FAIRCREST,True
993,,,2007/9/15,7850  HELEN,False
994,42.37699539,-83.01071278,2007/9/15,5014  MAXWELL,True
995,42.38489379,-83.19028378,2007/9/15,13376  LAUDER,True
996,42.40113137,-83.26803163,2007/9/15,15351  HAZELTON,True
997,42.34337148,-83.10994433,2007/9/15,5106  SCOTTEN,True
998,42.417689,-83.209987,2007/9/15,17300  FERGUSON,True
999,42.43806805,-82.97418492,2007/9/15,14438  CORAM,True
1000,42.43212023,-82.98480245,2007/9/15,13604  SARATOGA,True
1001,42.41300146,-82.96914509,2007/9/15,14508  WILSHIRE,True
1002,,,2007/9/15,15364  LESURE,False
1003,42.37662567,-83.17187112,2007/9/15,12114  SORRENTO,True
1004,,,2007/9/15,7588 E GRIXDALE,False
1005,42.43212208,-82.98473864,2007/9/15,13610  SARATOGA,True
1006,42.43214873,-82.97894382,2007/9/15,14055  FAIRCREST,True
1007,42.37441749,-83.13568099,2007/9/15,11624  NARDIN,True
1008,,,2007/9/15,15486  ARDMORE,False
1009,,,2007/9/15,3206 W EUCLID,False
1010,42.43502227,-83.01109827,2007/9/15,19172  LANGHOLM,True
1011,42.4060771,-83.26917739,2007/9/15,15830  GRAYFIELD,True
1012,42.44552329,-83.09859398,2007/9/15,20487  IRVINGTON,True
1013,42.3882085,-83.11972519,2007/9/15,2675  FULLERTON,True
1014,42.39852146,-83.14678458,2007/9/15,14832  TULLER,True
1015,42.420621,-82.971482,2007/9/15,14700  HOUSTON-WHITTIER,True
1016,42.42079184,-82.97085568,2007/9/15,14713  HOUSTON-WHITTIER,True
1017,,,2007/8/15,12666  WESTPHALIA,False
1018,,,2007/8/15,19337  WALTHAM,False
1019,,,2007/8/15,19503  HAMBURG,False
1020,42.41098084,-82.99427856,2007/8/15,11784  WILFRED,True
1021,42.39697121,-83.00379585,2007/8/15,8959  GRACE,True
1022,42.44005327,-82.97538931,2007/8/15,19620  REGENT DR,True
1023,,,2007/8/15,19184  STRASBURG,False
1024,42.41277519,-83.00185624,2007/8/15,11434  FINDLAY,True
1025,,,2007/8/15,13408 E MCNICHOLS,False
1026,42.41805355,-82.97414676,2007/8/15,14338  WILFRED,True
1027,42.41153714,-83.00537357,2007/8/15,11042  FINDLAY,True
1028,42.42226558,-82.98767758,2007/8/15,12392  FAIRPORT,True
1029,42.44135047,-82.99005678,2007/8/15,13203  TACOMA,True
1030,,,2007/8/15,9326  KRESGE,False
1031,42.41789091,-83.00943027,2007/8/15,11122  PORTLANCE,True
1032,42.4455469,-83.00010945,2007/8/15,20202  DRESDEN,True
1033,42.44564908,-83.00133081,2007/8/15,20234  BRADFORD,True
1034,42.44226843,-83.00119947,2007/8/15,19922  BRADFORD,True
1035,42.39964363,-83.00283222,2007/8/15,10168  WOODLAWN,True
1036,42.42010411,-82.9881657,2007/8/15,12241  GOULBURN,True
1037,42.44145218,-82.98612416,2007/8/15,13533  TACOMA,True
1038,42.41191775,-83.00480783,2007/8/15,11125  FINDLAY,True
1039,42.41912608,-83.00600631,2007/8/15,11426  PORTLANCE,True
1040,42.43922385,-82.99028042,2007/8/15,19575  JOANN,True
1041,,,2007/8/15,11810  WILFRED,False
1042,42.39837934,-83.00020808,2007/8/15,10419  DEVINE,True
1043,42.421602,-82.974765,2007/8/15,12400  CHALMERS,True
1044,42.41103718,-82.99411782,2007/8/15,11790  WILFRED,True
1045,42.920802,-85.6673669,2007/8/15,14419  KENT,True
1046,42.41163926,-83.00508349,2007/8/15,11078  FINDLAY,True
1047,42.41318697,-82.96966008,2007/8/15,14411  WILSHIRE,True
1048,,,2007/8/15,19619  WALTHAM,False
1049,42.427368,-83.069512,2007/7/15,18400  GALLAGHER,True
1050,42.386105,-83.240155,2007/7/15,20301  SCHOOLCRAFT,True
1051,42.416908,-82.9722,2007/7/15,11100  CHALMERS,True
1052,42.3817925,-83.15050664,2007/6/15,12746  ROSELAWN,True
1053,42.43357644,-82.98496,2007/6/15,18944  SCHOENHERR,True
1054,,,2007/6/15,13431 E STATE FAIR,False
1055,42.43124126,-82.97976577,2007/6/15,14000  LINNHURST,True
1056,,,2007/6/15,4900  WHITFIELD,False
1057,42.37950691,-83.15890077,2007/6/15,12381  WYOMING,True
1058,,,2007/6/15,9399  BIRWOOD,False
1059,38.039956,-84.4693149,2007/6/15,11723  KENTUCKY,True
1060,,,2007/6/15,13108  TURNER,False
1061,,,2007/6/15,19821  JOANN,False
1062,39.763736,-86.1326869,2007/6/15,11610  INDIANA,True
1063,,,2007/6/15,11745  GREENVIEW,False
1064,42.37463206,-83.15849974,2007/6/15,11728  WYOMING,True
1065,,,2007/6/15,11686  INDIANA,False
1066,,,2007/6/15,8827  PINEHURST,False
1067,42.439926,-83.0889609,2007/6/15,13401 E STATE FAIR,True
1068,42.44582039,-83.00277794,2007/6/15,20243  ANNOTT,True
1069,42.44377358,-83.00247698,2007/6/15,20010  ANNOTT,True
1070,42.431968,-82.975037,2007/6/15,14400  FAIRCREST,True
1071,,,2007/6/15,19200  SCHOENHERR,False
1072,,,2007/6/15,12403  WYOMING,False
1073,,,2007/6/15,15366  ROSA PARKS BLVD,False
1074,42.36912019,-83.16813473,2007/6/15,10019  MEYERS,True
1075,,,2007/6/15,15387  TURNER,False
1076,,,2007/6/15,11459  INDIANA,False
1077,,,2007/6/15,11683  WISCONSIN,False
1078,42.43207,-82.985122,2007/6/15,18653  SCHOENHERR,True
1079,,,2007/6/15,15861  ROSSINI DRIVE,False
1080,,,2007/6/15,14025  LINNHURST,False
1081,,,2007/6/15,14423  GLENWOOD,False
1082,42.43041564,-82.98475571,2007/6/15,13602  GLENWOOD,True
1083,42.36824514,-83.11646418,2007/6/15,8903  DEXTER,True
1084,42.38146983,-83.15896823,2007/6/15,12715  WYOMING,True
1085,42.37827291,-83.16099352,2007/6/15,12205  ILENE,True
1086,,,2007/6/15,12125  GRIGGS,False
1087,42.37891532,-83.16292434,2007/6/15,12356  BIRWOOD,True
1088,42.37212752,-83.16560421,2007/6/15,11436  PINEHURST,True
1089,42.3622107,-83.16410436,2007/6/15,9178  MENDOTA,True
1090,,,2007/6/15,9200  STEEL,False
1091,,,2007/6/15,13502  MONTE VISTA,False
1092,,,2007/6/15,12387  WYOMING,False
1093,,,2007/6/15,9159  PINEHURST,False
1094,,,2007/6/15,8965  DAWES,False
1095,,,2007/6/15,15396  PRAIRIE,False
1096,,,2007/6/15,13517  CHERRYLAWN,False
1097,42.37811423,-83.15862882,2007/6/15,12190  WYOMING,True
1098,,,2007/6/15,11661  WISCONSIN,False
1099,,,2007/6/15,12461  MENDOTA,False
1100,,,2007/6/15,3957  HELEN,False
1101,,,2007/6/15,12230  GRIGGS,False
1102,,,2007/6/15,8948  MENDOTA,False
1103,,,2007/6/15,8825  MEYERS,False
1104,,,2007/6/15,8945  STEEL,False
1105,,,2007/6/15,13510  MENDOTA,False
1106,42.38281371,-83.18494079,2007/6/15,12757  FREELAND,True
1107,42.36275314,-83.16554336,2007/6/15,9223  PINEHURST,True
1108,,,2007/6/15,15842 W SEVEN MILE,False
1109,42.33305799,-83.22153832,2007/6/15,6056  GREENVIEW,True
1110,39.763736,-86.1326869,2007/6/15,11942  INDIANA,True
1111,39.763736,-86.1326869,2007/6/15,11672  INDIANA,True
1112,42.35960943,-83.16402019,2007/6/15,8896  MENDOTA,True
1113,,,2007/6/15,9371  STEEL,False
1114,,,2007/6/15,9275  STEEL,False
1115,42.44087897,-82.99522267,2007/6/15,19761  WALTHAM,True
1116,42.43134361,-82.98148483,2007/6/15,13874  LINNHURST,True
1117,42.36699883,-83.11536983,2007/6/15,8758  DEXTER,True
1118,42.40902208,-83.07445715,2007/6/15,2144  DEARING,True
1119,,,2007/6/15,9146  MENDOTA,False
1120,42.36449992,-83.17779345,2007/6/15,9381  SCHAEFER,True
1121,42.36180356,-83.17748633,2007/6/15,9124  SCHAEFER,True
1122,42.37891032,-83.16314634,2007/6/15,12357  BIRWOOD,True
1123,,,2007/6/15,9116  MENDOTA,False
1124,45.3566502,-86.9306739,2007/6/15,11660  WISCONSIN,True
1125,42.40527986,-83.15073771,2007/6/15,15463  GREENLAWN,True
1126,45.3566502,-86.9306739,2007/6/15,15392  WISCONSIN,True
1127,42.37575151,-83.15384656,2007/6/15,11771  CHERRYLAWN,True
1128,42.37434688,-83.15848903,2007/6/15,11688  WYOMING,True
1129,42.44702505,-82.98569156,2007/6/15,20329  SCHOENHERR,True
1130,42.37797132,-83.15884579,2007/6/15,12171  WYOMING,True
1131,42.37816196,-83.16076642,2007/6/15,12184  ILENE,True
1132,42.36073156,-83.16278267,2007/6/15,8970  BIRWOOD,True
1133,42.38382522,-83.17066267,2007/6/15,13152  STEEL,True
1134,42.38249388,-83.17680626,2007/6/15,12770  HARTWELL,True
1135,,,2007/6/15,13510  MANOR,False
1136,42.38189778,-83.15898172,2007/6/15,12795  WYOMING,True
1137,42.37063359,-83.16796153,2007/6/15,10030  MEYERS,True
1138,42.38286468,-83.18494194,2007/6/15,12763  FREELAND,True
1139,45.3566502,-86.9306739,2007/6/15,11501  WISCONSIN,True
1140,,,2007/6/15,11645  OHIO,False
1141,42.44443826,-83.00372429,2007/6/15,20100  ROWE,True
1142,42.43133857,-82.98165267,2007/6/15,13860  LINNHURST,True
1143,42.36504197,-83.17025099,2007/6/15,9418  STEEL,True
1144,42.36335578,-83.17020633,2007/6/15,9276  STEEL,True
1145,42.35912911,-83.1640028,2007/6/15,8824  MENDOTA,True
1146,42.44173786,-82.97465929,2007/6/15,14447  TACOMA,True
1147,42.38399142,-83.15882557,2007/2/15,13150  WYOMING,True
1148,38.039956,-84.4693149,2007/2/15,9192  MANOR,True
1149,42.36148033,-83.16280596,2007/2/15,9108  BIRWOOD,True
1150,38.039956,-84.4693149,2007/2/15,9322  MANOR,True
1151,42.39067661,-83.16895135,2007/2/15,14145  MEYERS,True
1152,42.38152733,-83.15874792,2007/2/15,12724  WYOMING,True
1153,42.33206935,-83.15037046,2007/2/15,5633  LAWNDALE,True
1154,42.3817413,-83.15875466,2007/2/15,12764  WYOMING,True
1155,42.3864535,-83.1541981,2007/2/15,13511  CHERRYLAWN,True
1156,42.36210734,-83.16410145,2007/2/15,9170  MENDOTA,True
1157,42.38148453,-83.15874657,2007/2/15,12716  WYOMING,True
1158,38.039956,-84.4693149,2007/2/15,13157  KENTUCKY,True
1159,42.36457358,-83.16439211,2007/2/15,9359  MENDOTA,True
1160,42.36903032,-83.14472765,2007/2/15,9729  AMERICAN,True
1161,42.36432052,-83.16921112,2007/2/15,9343  APPOLINE,True
1162,42.36860377,-83.14448391,2007/2/15,9688  AMERICAN,True
1163,42.363582,-83.1372199,2007/2/15,5002-4  RIDGEWOOD,True
1164,42.3778384,-83.15861875,2007/2/15,12150  WYOMING,True
1165,42.382961,-83.2431129,2007/2/15,1721  TYLER,True
1166,42.38113147,-83.15873543,2007/2/15,12650  WYOMING,True
1167,42.38436146,-83.10013536,2007/2/15,1524  CALVERT,True
1168,42.3741888,-83.15140117,2007/2/15,11062  CLOVERLAWN,True
1169,42.36600494,-83.13759603,2007/2/15,9457  WOODSIDE,True
1170,42.40417108,-83.14379461,2007/2/15,15389  MONICA,True
1171,42.36277914,-83.16412036,2007/2/15,9222  MENDOTA,True
1172,42.36420056,-83.16536211,2007/2/15,9322  PINEHURST,True
1173,42.37966412,-83.1586843,2007/2/15,12410  WYOMING,True
1174,42.36873186,-83.14448946,2007/2/15,9700  AMERICAN,True
1175,38.039956,-84.4693149,2007/2/15,12057  KENTUCKY,True
1176,39.763736,-86.1326869,2007/2/15,11680  INDIANA,True
1177,42.38302553,-83.18469427,2007/2/15,12770  FREELAND,True
1178,42.38399939,-83.16094879,2007/2/15,13160  ILENE,True
1179,42.36352845,-83.15418914,2007/2/15,8581  WESTFIELD,True
1180,42.36504318,-83.165386,2007/2/15,9408  PINEHURST,True
1181,45.3566502,-86.9306739,2007/2/15,11833  WISCONSIN,True
1182,42.364048,-83.1316621,2007/2/15,5206  JOY ROAD,True
1183,42.374133,-83.158481,2007/2/15,11658  WYOMING,True
1184,38.039956,-84.4693149,2007/1/15,11616  KENTUCKY,True
1185,38.039956,-84.4693149,2007/1/15,12042  KENTUCKY,True
1186,39.763736,-86.1326869,2007/1/15,11953  INDIANA,True
1187,42.40080827,-83.03965864,2015/6/30,9665  BROCKTON,True
1188,42.39902886,-83.04068472,2015/6/30,6105  DOREMUS,True
1189,42.400331,-83.039657,2015/6/30,6200  EDWIN,True
1190,42.39663155,-83.03959824,2015/6/30,6142  HEDGE,True
1191,42.39813729,-83.04016112,2015/6/30,6128  COMSTOCK,True
1192,42.3761976,-83.0417917,2015/6/30,1082 E GRAND BLVD,True
1193,42.39679827,-83.03945845,2015/6/30,6155  HEDGE,True
1194,42.39529982,-83.03874373,2015/6/30,6209  DOMINE,True
1195,42.39878567,-83.04115033,2015/6/30,9441  BROCKTON,True
1196,42.39662291,-83.04005674,2015/6/30,6104  HEDGE,True
1197,42.39738827,-83.03890682,2015/6/30,6202  HUBER,True
1198,42.39978915,-83.03926527,2015/6/30,6179  NORWALK,True
1199,,,2015/6/30,4515  FIELD,False
1200,42.39813253,-83.0404257,2015/6/30,6098  COMSTOCK,True
1201,42.39828526,-83.04106518,2015/6/30,6027  COMSTOCK,True
1202,42.39738464,-83.03938924,2015/6/30,6162  HUBER,True
1203,42.39662473,-83.03996021,2015/6/30,6112  HEDGE,True
1204,33.767022,-84.4493179,2015/6/30,4109  GEORGIA,True
1205,42.40019297,-83.04011242,2015/6/30,9607  BROCKTON,True
1206,42.39512228,-83.04062685,2015/6/30,5992  DOMINE,True
1207,42.39829901,-83.04032267,2015/6/30,6111  COMSTOCK,True
1208,42.39785761,-83.04183535,2015/6/30,9351  BROCKTON,True
1209,42.36969612,-83.00770076,2015/6/30,8020  SYLVESTER,True
1210,42.397514,-83.041862,2015/6/30,5941  HUBER,True
1211,42.39828624,-83.04101214,2015/6/30,6033  COMSTOCK,True
1212,42.39812017,-83.04111361,2015/6/30,6020  COMSTOCK,True
1213,42.39663564,-83.03938106,2015/6/30,6160  HEDGE,True
1214,42.40034191,-83.03929478,2015/6/30,6240  EDWIN,True
1215,42.40033209,-83.03962078,2015/6/30,6204  EDWIN,True
1216,42.419761,-82.9368299,2015/6/30,10694  LANARK,True
1217,42.39828362,-83.04115357,2015/6/30,6017  COMSTOCK,True
1218,42.39978128,-83.03971724,2015/6/30,6141  NORWALK,True
1219,41.733107,-71.2578279,2015/6/26,15420 E WARREN,True
1220,42.34127915,-83.22414792,2015/6/26,6920  STAHELIN,True
1221,42.39024428,-83.18415495,2015/6/25,14125  ARDMORE,True
1222,42.42839369,-82.94946409,2015/6/24,12300  LANSDOWNE,True
1223,-26.2073783,28.338827,2015/6/24,13102  WARD,True
1224,42.39461131,-82.95698796,2015/6/23,4838  MARLBOROUGH,True
1225,,,2015/6/23,4127- E MCNICHOLS,False
1226,42.41265395,-83.18928226,2015/6/23,16622  HUBBELL,True
1227,42.35794132,-83.13090607,2015/6/23,5570  MAPLEWOOD,True
1228,42.32860012,-83.13688267,2015/6/23,4480  CASPER,True
1229,,,2015/6/23,4127- E MCNICHOLS,False
1230,41.4818576,-81.8289544,2015/6/23,2563  LAKEWOOD,True
1231,42.40433131,-82.93156299,2015/6/23,4893  GRAYTON,True
1232,,,2015/6/23,8234  NORMILE,False
1233,42.3568638,-83.02432873,2015/6/23,3411  BENSON,True
1234,42.441952,-83.0881583,2015/6/23,20069  GREELEY,True
1235,42.40066764,-83.12658895,2015/6/23,14860  LINWOOD,True
1236,15.1512684,120.5650084,2015/6/23,4439  CENTRAL,True
1237,39.184746,-119.7088048,2015/6/22,2326-  CARSON,True
1238,42.39142737,-83.26034398,2015/6/19,14363  DACOSTA,True
1239,,,2015/6/19,17450  JOS CAMPAU,False
1240,42.39181223,-83.23337849,2015/6/19,14350  MINOCK,True
1241,42.4476817,-83.0431827,2015/6/19,13784  GABLE,True
1242,42.42008412,-83.06137647,2015/6/19,17232  DEAN,True
1243,42.41381713,-83.07693742,2015/6/19,13984  LUMPKIN,True
1244,42.42189675,-83.07085185,2015/6/19,17534  MCDOUGALL,True
1245,42.39754162,-82.92082746,2015/6/18,3577  GUILFORD,True
1246,,,2015/6/18,2835  16TH,False
1247,35.5889694,-89.8136939,2015/6/18,501  TENNESSEE,True
1248,42.39158228,-82.95044238,2015/6/18,4236  ALTER,True
1249,42.37678195,-82.94066996,2015/6/18,1270  ALTER,True
1250,42.38861303,-82.9685686,2015/6/18,4655  ALGONQUIN,True
1251,,,2015/6/18,3323  CLEMENTS,False
1252,42.36775148,-82.94108142,2015/6/18,548  CHALMERS,True
1253,42.33741363,-83.0785541,2015/6/18,3121  WABASH,True
1254,,,2015/6/17,21630  JASON,False
1255,42.36646644,-83.00772315,2015/6/17,7733  MACK,True
1256,42.359318,-83.02770086,2015/6/17,3337  GRATIOT,True
1257,42.40246724,-83.15511599,2015/6/17,8727  FENKELL,True
1258,42.401458,-82.9935249,2015/6/17,11100  CONNER,True
1259,,,2015/6/17,3182  SUPERIOR,False
1260,42.3761976,-83.0417917,2015/6/17,1964 E GRAND BLVD,True
1261,42.36564192,-83.21558223,2015/6/16,9569  ARCHDALE,True
1262,,,2015/6/16,16939  WINSTON,False
1263,42.31027651,-83.1191168,2015/6/16,7233  CAHALAN,True
1264,,,2015/6/16,532  OAKWOOD,False
1265,,,2015/6/16,6060 W VERNOR,False
1266,42.28923129,-83.1457922,2015/6/16,344  BAYSIDE,True
1267,,,2015/6/15,16611  MEYERS,False
1268,,,2006/12/15,16831 W GRAND RIVER,False
1269,,,2006/12/15,10407  WHITTIER,False
1270,,,2006/12/15,9403  MT ELLIOTT,False
1271,,,2006/12/15,6101 E MCNICHOLS,False
1272,,,2006/12/15,4383  SPRINGLE,False
1273,,,2006/12/15,4152  SPRINGLE,False
1274,42.43391462,-83.12109915,2015/4/15,19344 CUMBERLAND,True
1275,42.43391462,-83.12109915,2015/4/15,19344 CUMBERLAND,True
1276,42.33953007,-83.05672577,2015/4/14,2500 CLIFFORD,True
1277,42.35301358,-83.10010273,2015/4/14,5743 W GRAND RIVER,True
1278,42.33963608,-83.05592148,2015/4/14,124 HENRY,True
1279,42.34034588,-83.0542622,2015/4/14,42 HENRY,True
1280,42.42302671,-83.10877204,2015/4/14,17926 WOODWARD,True
1281,42.40697082,-83.14029386,2015/4/14,15744 LIVERNOIS,True
1282,42.41584684,-83.20603154,2015/4/14,16100 W MCNICHOLS,True
1283,42.26776757,-83.16013589,2015/4/14,12528 VISGER,True
1284,42.29224272,-83.13997007,2015/4/14,10287 W FORT,True
1285,42.41812721,-83.09322084,2015/4/14,1001 E MCNICHOLS,True
1286,42.34076992,-83.05597679,2015/4/14,2601 PARK,True
1287,42.41199659,-83.16733895,2015/4/14,2607 - 11 PARK,True
1288,42.34088515,-83.05541217,2015/4/14,66 SIBLEY,True
1289,42.37088826,-83.17179725,2015/4/14,11301 SORRENTO,True
1290,42.38270663,-83.24057222,2015/4/14,3703 JEFFRIES,True
1291,42.34323696,-83.14181142,2004/10/15,7302 WHEELER,True
1292,42.44435199,-83.21193007,2004/10/15,16921 W EIGHT MILE,True
1293,42.44435199,-83.21166965,2004/10/15,16901 W EIGHT MILE,True
1294,42.42202077,-83.04078396,2004/10/15,17420 DWYER,True
1295,42.3309981,-83.03723259,2004/10/15,672 E WOODBRIDGE,True
1296,42.33074622,-83.03611145,2004/10/15,673 FRANKLIN,True
1297,42.34037008,-83.0555758,2004/9/15,2540 PARK,True
1298,42.34037008,-83.0555758,2004/9/15,2540 PARK,True
1299,42.3335912,-83.03003778,2004/9/15,265 RIOPELLE,True
1300,42.3335912,-83.03003778,2004/9/15,265 RIOPELLE,True
1301,42.35285851,-83.23945808,2004/9/15,8253 STOUT,True
1302,42.37293126,-83.05816843,2004/7/15,6401 RUSSELL,True
1303,42.37293126,-83.05816843,2004/7/15,6401 RUSSELL,True
1304,42.31635076,-83.12415731,2004/6/15,2577 STAIR,True
1305,42.31635076,-83.12415731,2004/6/15,2577 STAIR,True
1306,42.3143988,-83.13199397,2004/2/15,2652 NORMAN,True
1307,42.31478827,-83.10933435,2004/2/15,1788 LIVERNOIS,True
1308,42.39377258,-83.0827708,2004/2/15,314 ENGLEWOOD,True
1309,42.32536852,-83.13346313,2004/2/15,4026 CENTRAL,True
1310,42.39377258,-83.0827708,2004/2/15,314 ENGLEWOOD,True
1311,42.36096764,-83.11964278,2004/1/15,8338 W GRAND RIVER,True
1312,42.36096764,-83.11964278,2004/1/15,8338 W GRAND RIVER,True
1313,42.33168114,-83.04799604,2015/3/31,3901- 11 BEAUBIEN,True
1314,42.33168114,-83.04799604,2015/3/31,3901- 11 BEAUBIEN,True
1315,42.43215739,-83.21187822,2015/3/26,19301 BILTMORE,True
1316,42.43340992,-83.21842779,2015/3/26,19373 FENMORE,True
1317,42.43215739,-83.21187822,2015/3/26,19301 BILTMORE,True
1318,42.43611778,-83.20549803,2015/3/26,19727 RUTHERFORD,True
1319,42.44138832,-83.20318771,2015/3/26,20209 FORRER,True
1320,42.41053943,-82.95176442,2015/3/26,9666 BALFOUR,True
1321,42.35429771,-83.0080822,2015/3/26,1786 HELEN,True
1322,42.4088813,-83.12959377,2015/3/26,15870 LAWTON,True
1323,42.37695618,-83.1101905,2015/3/23,2522 CHICAGO,True
1324,42.33221999,-83.13415681,2015/3/19,4779 CHOPIN,True
1325,42.37595139,-82.96024867,2015/3/18,2211 ALGONQUIN,True
1326,42.33753662,-83.07283122,2015/3/18,2916 COCHRANE,True
1327,42.33529658,-83.07340966,2015/3/18,1824 SPRUCE,True
1328,42.33901615,-83.07564855,2015/3/18,1830 ASH,True
1329,42.38960708,-82.97034266,2015/3/18,4810 ANDERDON,True
1330,42.31289622,-83.12373096,2015/3/17,7626 W VERNOR,True
1331,42.39861562,-82.95022152,2015/3/16,15301 E WARREN,True
1332,42.37294048,-83.02289708,2003/12/15,5045 CONCORD,True
1333,42.34452636,-83.12408126,2003/11/15,5840 W WARREN,True
1334,42.41632734,-82.99003862,2003/11/15,12333 GRATIOT,True
1335,42.38415103,-82.94567807,2003/11/15,2647 ALTER,True
1336,42.37885744,-82.94211291,2003/11/15,1544 ALTER,True
1337,42.3483335,-82.99976848,2003/11/15,7339 E JEFFERSON,True
1338,42.33168114,-83.04799604,2003/11/15,7349- 7355 E JEFFERSON,True
1339,42.38420749,-82.94563313,2003/11/15,2652 ALTER,True
1340,42.36178142,-83.12165478,2003/11/15,8522 W GRAND RIVER,True
1341,42.36178142,-83.12165478,2003/11/15,8522 W GRAND RIVER,True
1342,42.42638676,-83.09584113,2003/10/15,701 E MARGARET,True
1343,42.40406476,-82.91662098,2003/10/15,17929 MACK,True
1344,42.43009711,-83.09548162,2003/10/15,745 E ROBINWOOD,True
1345,42.35108284,-83.07961931,2003/6/15,4829 COMMONWEALTH,True
1346,42.32171348,-83.09211004,2003/5/15,4007 W VERNOR,True
1347,42.38206079,-83.07005768,2003/5/15,8529 OAKLAND,True
1348,42.32175556,-83.09200009,2003/5/15,4001 W VERNOR,True
1349,42.37120744,-83.0197479,2003/5/15,6927 GRATIOT,True
1350,42.4189822,-83.04594963,2003/5/15,5636 E MCNICHOLS,True
1351,42.40706069,-83.14029386,2003/5/15,15750 LIVERNOIS,True
1352,42.41897183,-83.04635985,2003/4/15,5612 E MCNICHOLS,True
1353,42.34479254,-83.14376108,2003/4/15,7501 W. WARREN,True
1354,42.34850749,-83.00429234,2003/4/15,622 HELEN,True
1355,42.42638676,-83.09584113,2003/4/15,701 E MARGARET,True
1356,42.43009711,-83.09548162,2003/4/15,745 E ROBINWOOD,True
1357,42.35555831,-82.98137346,2003/2/15,350 PARKVIEW,True
1358,42.38164251,-83.09684131,2015/2/25,1445 CHICAGO,True
1359,42.42014255,-82.97717109,2015/2/25,14216 LORETTO,True
1360,42.37669115,-83.24505356,2015/2/25,12220 PIERSON,True
1361,42.37606777,-83.24257731,2015/2/25,12143 PATTON,True
1362,42.38815636,-83.12279992,2015/2/25,2922 LESLIE,True
1363,42.35754253,-83.11576063,2015/2/25,4289 ALLENDALE,True
1364,42.37715783,-83.23896721,2015/2/25,12253 HEYDEN,True
1365,42.37562068,-83.24249319,2015/2/25,12108 PATTON,True
1366,42.37517821,-83.23889807,2015/2/25,12077 HEYDEN,True
1367,42.37584884,-83.24257731,2015/2/25,12127 PATTON,True
1368,42.37615995,-83.24629342,2015/2/25,12150 BURT RD,True
1369,42.3728022,-83.24354062,2015/2/25,20687 PATTON CT,True
1370,42.37593987,-83.2450236,2015/2/25,12134 PIERSON,True
1371,42.37661165,-83.24505356,2015/2/25,12218 PIERSON,True
1372,42.3767384,-83.23772735,2015/2/25,12223 VAUGHAN,True
1373,42.37255792,-83.23881741,2015/2/25,11639 HEYDEN,True
1374,42.40236284,-83.25041398,2015/2/23,15400 WESTBROOK,True
1375,42.37403053,-83.00244754,2015/2/23,4229 FISCHER,True
1376,42.44028789,-83.28399723,2015/2/23,20441 WINSTON,True
1377,42.39442823,-82.95466356,2015/2/23,4698 MANISTIQUE,True
1378,42.36322905,-83.16908823,2015/2/23,9257 APPOLINE,True
1379,42.36115033,-83.17381374,2015/2/23,9112 CHEYENNE,True
1380,42.35937927,-83.23963784,2015/2/23,9003 STOUT,True
1381,42.35374807,-83.23458739,2015/2/23,8311 PLAINVIEW,True
1382,42.35299102,-83.22462361,2015/2/23,8246 STAHELIN,True
1383,42.35247019,-83.22107343,2015/2/23,8200 FAUST,True
1384,42.35173849,-83.23942812,2015/2/23,8099 STOUT,True
1385,42.34684129,-83.2414135,2015/2/23,7600 PATTON,True
1386,42.34678714,-83.21731814,2015/2/23,7441 ASHTON,True
1387,42.39039063,-83.23696339,2015/2/23,14220 EVERGREEN,True
1388,42.38439185,-83.22213352,2015/2/23,13500 FAUST,True
1389,42.33168114,-83.04799604,2015/2/23,2504 EDSEL,True
1390,42.4364773,-83.25424186,2015/2/23,21422 PEMBROKE,True
1391,42.4364773,-83.25424186,2015/2/23,21422 PEMBROKE,True
1392,42.43523168,-83.25483298,2015/2/23,19734 CHAPEL,True
1393,42.43515793,-83.22675763,2015/2/23,19515 AVON,True
1394,42.42060807,-83.2450478,2015/2/23,17609 PATTON,True
1395,42.41582149,-83.23818366,2015/2/23,17134 EVERGREEN,True
1396,42.41157994,-83.25948359,2015/2/23,16716 DOLPHIN,True
1397,42.40920048,-83.25229335,2015/2/23,16208 BENTLER,True
1398,42.40016083,-82.95555774,2015/2/23,5287 WAYBURN,True
1399,42.41563597,-82.94334009,2015/2/23,9238 YORKSHIRE,True
1400,42.40239165,-82.95567873,2015/2/23,5603 MARYLAND,True
1401,42.40911752,-82.91783203,2015/2/23,4844 RADNOR,True
1402,42.40818071,-82.91951782,2015/2/23,4825 LODEWYCK,True
1403,42.39645048,-82.94829836,2015/2/23,4675 BEACONSFIELD,True
1404,42.39340846,-82.94939303,2015/2/23,4330 MARYLAND,True
1405,42.43525357,-82.95007172,2015/2/23,18600 KINGSVILLE,True
1406,42.42076939,-82.94985625,2015/2/23,11121 ROXBURY,True
1407,42.42174998,-82.94205415,2015/2/23,10844 MCKINNEY,True
1408,42.33168114,-83.04799604,2015/2/23,8026- 30 E FOREST,True
1409,42.37442807,-83.01420312,2015/2/23,4802 BALDWIN,True
1410,42.38026092,-82.99398749,2015/2/23,4703 HURLBUT,True
1411,42.37599057,-83.00260771,2015/2/23,4525 CRANE,True
1412,42.38202737,-82.98593304,2015/2/23,4442 LEMAY,True
1413,42.37049188,-83.01428839,2015/2/23,4415 SHERIDAN,True
1414,42.37893162,-82.98131866,2015/2/23,3906 LILLIBRIDGE,True
1415,42.37753808,-82.98938297,2015/2/23,3900 GARLAND,True
1416,42.37408124,-82.99120818,2015/2/23,3733 CADILLAC,True
1417,42.36734154,-83.00962856,2015/2/23,3703 BALDWIN,True
1418,42.36986965,-82.99656745,2015/2/23,3509 ROHNS,True
1419,42.36743833,-82.9835939,2015/2/23,2250 BEWICK,True
1420,42.40347825,-83.26064739,2015/2/23,15497 DACOSTA,True
1421,42.39399843,-83.26157728,2015/2/23,14565 LAMPHERE,True
1422,42.38149617,-83.10511009,2002/3/15,1994 GLYNN COURT,True
1423,42.30179629,-83.13356108,2002/3/15,9202 LONGWORTH,True
1424,42.30098624,-83.12169142,2002/3/15,8046 WITT,True
1425,42.41053943,-82.95176442,2002/3/15,9666 BALFOUR,True
1426,42.41136562,-82.97836024,2002/3/15,13019 PROMENADE,True
1427,42.40088561,-82.99221989,2002/3/15,11125 CORBETT,True
1428,42.41019144,-83.06885815,2002/3/15,13107 MAINE,True
1429,42.43546863,-83.08784432,2002/3/15,19321 GREELEY,True
1430,42.44101729,-82.95705109,2002/3/15,15865 MANNING,True
1431,42.44162223,-82.97510965,2002/3/15,14416 TACOMA,True
1432,42.44382885,-82.98670737,2002/3/15,19997 PELKEY,True
1433,42.3973919,-83.02570059,2002/3/15,7330 MERKEL,True
1434,42.44310061,-83.09833352,2002/3/15,20160 IRVINGTON,True
1435,42.38423745,-83.20767815,2002/3/15,12941 ASBURY PARK,True
1436,42.40742712,-83.17176729,2002/3/15,15791 STEEL,True
1437,42.42773954,-82.95011666,2002/3/15,12091 LANSDOWNE,True
1438,42.40250803,-82.95693356,2002/3/15,5710 WAYBURN,True
1439,42.41930783,-83.11017444,2002/3/15,11040- 2 GLENFIELD,True
1440,42.33107232,-83.13584029,2002/3/15,7511 MICHIGAN,True
1441,42.33334223,-83.10735213,2002/3/15,5127 - 29 TRUMBULL,True
1442,42.33107232,-83.13591058,2002/3/15,7515 MICHIGAN,True
1443,42.34292699,-83.00838294,2002/3/15,282 IRON,True
1444,42.43183821,-83.07495718,2002/3/15,18897 ANGLIN,True
1445,42.33168114,-83.04799604,2002/3/15,3272- 74 CLAIRMOUNT,True
1446,42.38738548,-83.11309079,2002/3/15,2346 RICHTON,True
1447,42.44276069,-83.10049289,2002/3/15,20136 KEATING,True
1448,42.3880757,-83.11349985,2002/3/15,2342 CORTLAND,True
1449,42.43536995,-83.10026359,2002/3/15,19330 KEATING,True
1450,42.43430755,-83.09268734,2002/3/15,19221 HAWTHORNE,True
1451,42.43430755,-83.09268734,2002/3/15,19221 HAWTHORNE,True
1452,42.43430755,-83.09268734,2002/3/15,19221 HAWTHORNE,True
1453,42.4339803,-83.09806388,2002/3/15,19208 IRVINGTON,True
1454,42.43322786,-83.08659753,2002/3/15,19127 RIOPELLE,True
1455,42.42631187,-83.08373296,2002/3/15,18074 MARX,True
1456,42.41569589,-82.94577025,2002/3/15,9798 KENSINGTON AVE,True
1457,42.33250309,-83.04975362,2002/3/15,13800 E STATE FAIR,True
1458,42.37723157,-83.24012295,2002/3/15,12256 STOUT,True
1459,42.39606562,-83.12996942,2002/3/15,3014 KENDALL,True
1460,42.35686615,-83.12033058,2002/3/15,4618 PACIFIC,True
1461,42.35628194,-83.13930059,2002/3/15,6349 LINSDALE,True
1462,42.37773051,-83.14017402,2002/3/15,12108 STOEPEL,True
1463,42.35951063,-83.09439732,2002/3/15,6140 15TH,True
1464,42.38105254,-83.07290035,2002/3/15,508 HAGUE,True
1465,42.43407018,-83.11017321,2002/3/15,19228 HAVANA,True
1466,42.42636141,-82.96786987,2002/3/15,14918 TROESTER,True
1467,42.43762727,-83.07147729,2002/3/15,19447 CHAREST,True
1468,42.43144182,-82.9689196,2002/3/15,14866 LINNHURST,True
1469,42.41715583,-82.97949985,2002/3/15,13145 FLANDERS,True
1470,42.40367068,-83.18231297,2015/1/28,15392 STANSBURY,True
1471,42.41475102,-83.28511379,2015/1/28,17128 SALEM,True
1472,42.36498282,-83.08528508,2015/1/27,6520 STERLING,True
1473,42.36439631,-83.08602024,2015/1/27,1430 FERRY PARK,True
1474,42.36393539,-83.08723013,2015/1/27,1506 FERRY PARK,True
1475,42.36269669,-83.08751129,2015/1/27,6218 AVERY,True
1476,42.36444585,-83.08587044,2015/1/27,1422 FERRY PARK,True
1477,42.37502495,-82.93923221,2015/1/22,14901 E JEFFERSON,True
1478,42.3750457,-82.93918035,2015/1/22,14917 E JEFFERSON,True
1479,42.42463645,-83.10301178,2015/1/22,44 W NEVADA,True
1480,42.3448271,-83.14444208,2015/1/20,7544 W WARREN,True
1481,42.38688309,-82.9848015,2015/1/20,11200 E WARREN,True
1482,42.36184842,-83.12197611,2015/1/20,8539 W GRAND RIVER,True
1483,42.37990973,-83.16659004,2015/1/20,12572 W GRAND RIVER,True
1484,42.31585528,-83.10413065,2015/1/15,5844 BAKER,True
1485,42.38507977,-83.00920682,2015/1/15,5793 CRANE,True
1486,42.34107643,-83.09746931,2015/1/15,3426 BUCHANAN,True
1487,42.38883736,-82.94752287,2015/1/14,3600 WAYBURN,True
1488,42.3280326,-83.12963986,2015/1/14,7101 PARKWOOD,True
1489,42.35800575,-83.11736115,2015/1/13,4346 PACIFIC,True
1490,42.41018568,-82.9878101,2001/12/15,12211 ROSEMARY,True
1491,42.40097319,-82.98913177,2001/12/15,11708 MAIDEN,True
1492,42.40285256,-82.97630227,2001/12/15,12714 HAMPSHIRE,True
1493,42.30692989,-83.10439815,2001/12/15,11044- 46 GLENFIELD,True
1494,42.40602249,-82.98693091,2001/12/15,12090 CHELSEA,True
1495,42.40678645,-82.98492018,2001/12/15,12245 CHELSEA,True
1496,42.40542561,-82.97632992,2001/12/15,12797 MAIDEN,True
1497,42.40292285,-82.97331325,2001/12/15,13014 EVANSTON,True
1498,42.40849298,-82.97633107,2001/12/15,13024 LONGVIEW,True
1499,42.40689592,-82.97478932,2001/12/15,13053 CORBETT,True
1500,42.40742251,-82.97944108,2001/12/15,12700 LONGVIEW,True
1501,42.40616652,-82.97419935,2001/12/15,13061 MAIDEN,True
1502,42.40558577,-82.96714854,2001/12/15,14255 HAMPSHIRE,True
1503,42.41823207,-82.97117231,2001/12/15,14490 GLENFIELD,True
1504,42.41382228,-82.96803119,2001/12/15,14518 PROMENADE,True
1505,42.38434922,-83.00550454,2001/12/15,5450 HOLCOMB,True
1506,42.37834122,-83.01950822,2001/12/15,5461 SHERIDAN,True
1507,42.38637839,-83.00093344,2001/12/15,5556 PENNSYLVANIA,True
1508,42.38754911,-83.01335389,2001/12/15,6114 BURNS,True
1509,42.40606282,-82.9833911,2001/12/15,12296 LONGVIEW,True
1510,42.42481851,-82.9604872,2001/9/15,12805 KELLY RD,True
1511,42.36395268,-82.98574982,2001/9/15,9626 KERCHEVAL,True
1512,42.42184793,-82.95318749,2001/9/15,11401 WAYBURN,True
1513,42.42489917,-82.96042728,2001/9/15,12809 KELLY RD,True
1514,42.33438171,-83.21603845,2001/5/15,20740 W SEVEN MILE,True
1515,42.41126306,-82.91379098,2001/5/15,4889 OPAL,True
1516,42.41078832,-82.91472317,2001/5/15,4900 CANYON,True
1517,42.40418229,-82.98882181,2014/12/19,11822 LONGVIEW,True
1518,42.39445127,-83.12302807,2014/12/19,13639 LINWOOD,True
1519,42.41820672,-82.97145922,2014/12/19,14475 GLENFIELD,True
1520,42.41820672,-82.97145922,2014/12/19,14475 GLENFIELD,True
1521,42.33168114,-83.04799604,2014/12/19,488 WARING,True
1522,42.33168114,-83.04799604,2014/12/19,239 HEIDT,True
1523,42.33168114,-83.04799604,2014/12/19,239 HEIDT,True
1524,42.3750215,-83.17309356,2014/12/19,11732 WARD,True
1525,42.33168114,-83.04799604,2014/12/18,5571- 73 ALLENDALE,True
1526,42.33168114,-83.04799604,2014/12/18,5102 -04 OREGON,True
1527,42.33168114,-83.04799604,2014/12/18,9669 - 71 MARTINDALE,True
1528,42.35780295,-83.11775062,2014/12/18,4377 PACIFIC,True
1529,42.37771323,-83.12686056,2014/12/18,4033 BURLINGAME,True
1530,42.34208603,-83.08510354,2014/12/18,4014- 16 ELMHURST,True
1531,42.37942898,-83.15987804,2014/12/18,12257 WASHBURN,True
1532,42.37832855,-83.15675766,2014/12/18,12065 INDIANA,True
1533,42.37807043,-83.13071725,2014/12/18,11803 OTSEGO,True
1534,42.37643074,-83.13357836,2014/12/18,11695 CASCADE,True
1535,42.37202672,-83.15957154,2014/12/18,10050 AURORA,True
1536,42.43621688,-82.9680911,2014/12/18,14923 MADDELEIN,True
1537,42.44013694,-82.9683907,2014/12/18,14915 LIBERAL,True
1538,42.43301699,-82.96883202,2014/12/18,14875 SARATOGA,True
1539,42.43613161,-82.96919038,2014/12/18,14824 MADDELEIN,True
1540,42.4279723,-82.97002002,2014/12/18,14800 SPRING GARDEN,True
1541,42.44339675,-82.97301135,2014/12/18,14535 ROSSINI DRIVE,True
1542,42.43432253,-82.9728604,2014/12/18,14522 FORDHAM,True
1543,42.42339314,-82.99056982,2014/12/18,12911 NASHVILLE,True
1544,42.42548683,-82.97391128,2014/12/18,14453 CEDARGROVE,True
1545,42.4202935,-82.99717355,2014/12/18,12760 DRESDEN,True
1546,42.42744225,-82.99383999,2014/12/18,12730 GREINER,True
1547,42.44330226,-82.97464067,2014/12/18,14444 ROSSINI DRIVE,True
1548,42.42089499,-82.99665732,2014/12/18,12707 STRASBURG,True
1549,42.44749772,-82.99541747,2014/12/18,20505 WALTHAM,True
1550,42.42362474,-82.9913165,2014/12/18,12637 WESTPHALIA,True
1551,42.44426787,-82.98911794,2014/12/18,20019 ALCOY,True
1552,42.43313798,-82.99848715,2014/12/18,18919 STRASBURG,True
1553,42.41380615,-82.99407967,2014/12/18,12043 SANFORD,True
1554,42.42415134,-83.00049327,2014/12/18,17338 BRADFORD,True
1555,42.42456155,-82.99683362,2014/12/18,17238 HAMBURG,True
1556,42.42732818,-82.98815809,2014/12/18,17215 ALCOY,True
1557,42.41406311,-82.98813159,2014/12/18,12316 FLANDERS,True
1558,42.42606182,-82.99008356,2014/12/18,17168 GITRE,True
1559,42.41469571,-82.98648959,2014/12/18,12551 FLANDERS,True
1560,42.43917248,-82.95566029,2014/12/18,16000 NOVARA,True
1561,42.33250309,-83.04975362,2014/12/18,12001 E STATE FAIR,True
1562,42.41504255,-83.00068109,2014/12/18,11550 MINDEN,True
1563,42.44556189,-82.95778971,2014/12/18,15832 EASTBURN,True
1564,42.41289585,-83.00184029,2014/12/18,11431 FINDLAY,True
1565,42.42787666,-82.97654079,2014/12/18,14229 SPRING GARDEN,True
1566,42.43595186,-82.97582983,2014/12/18,14358 MADDELEIN,True
1567,42.43054189,-82.98204985,2014/12/18,13820 GLENWOOD,True
1568,42.41846598,-82.97914955,2014/12/18,13335 JANE,True
1569,42.36483533,-83.12308453,2014/12/18,8778 MACKINAW,True
1570,42.35985862,-83.17634761,2014/12/18,8881 HARTWELL,True
1571,42.3692405,-83.16918387,2014/12/18,9944 APPOLINE,True
1572,42.43013168,-82.96070037,2014/12/18,15510 PARK GROVE,True
1573,42.33168114,-83.04799604,2014/12/18,9686- 88 BROADSTREET,True
1574,42.3637372,-83.14081815,2014/12/18,9207 MONICA,True
1575,42.35812674,-83.15202755,2014/12/18,8601 NORTHLAWN,True
1576,42.35299217,-83.14603338,2014/12/18,8068 CENTRAL,True
1577,42.35971343,-83.13323037,2014/12/18,5591 S MARTINDALE,True
1578,42.4221625,-82.98039978,2014/12/18,14006 MAYFIELD,True
1579,42.36302048,-83.13623437,2014/12/18,5505 GREENWAY,True
1580,42.37440733,-83.13775077,2014/12/18,5186 WEBB,True
1581,42.36078045,-83.12856363,2014/12/18,5109 S CLARENDON,True
1582,42.4342822,-82.97704088,2014/12/18,14208 FORDHAM,True
1583,42.42975143,-82.97587016,2014/12/18,14268 PARK GROVE,True
1584,42.42781214,-82.97697059,2014/12/18,14202 SPRING GARDEN,True
1585,42.4382472,-82.96056094,2014/12/18,15603 CORAM,True
1586,42.4237515,-82.98162005,2014/12/18,13938 YOUNG,True
1587,42.42295181,-82.98256031,2014/12/18,13358 ROCHELLE,True
1588,42.40714827,-83.20433768,2014/12/16,15819 RUTHERFORD,True
1589,42.36979014,-82.99771742,2014/12/15,3525 CRANE,True
1590,42.37763718,-82.97909309,2014/12/15,3546 BENITEAU,True
1591,42.37763718,-82.97909309,2014/12/15,3546 BENITEAU,True
1592,42.36979014,-82.99771742,2014/12/15,3525 CRANE,True
1593,42.35078786,-83.00576265,2012/8/14,1200 HELEN,True
1594,42.33408888,-83.03019443,2012/8/14,1500 E WOODBRIDGE,True
1595,42.3892614,-83.26136296,2012/8/14,14170 LAMPHERE,True
1596,42.3892614,-83.26136296,2012/8/14,14170 LAMPHERE,True
1597,42.29200535,-83.11429262,2012/5/14,8032 W JEFFERSON,True
1598,42.39054158,-83.16989368,2012/4/14,14128 APPOLINE,True
1599,42.37139066,-83.17420321,2012/4/14,11340 CHEYENNE,True
1600,42.39489029,-83.1905829,2012/4/14,14524 LAUDER,True
1601,42.37159807,-83.20720802,2012/4/14,11409 ASBURY PARK,True
1602,42.37414807,-83.19999819,2012/4/14,11709 MONTROSE,True
1603,42.37516784,-83.17194819,2012/4/14,11739 SORRENTO,True
1604,42.39884723,-83.17026817,2012/4/14,14879 APPOLINE,True
1605,42.37773051,-83.20367397,2012/4/14,12250 MANSFIELD,True
1606,42.37791833,-83.20743732,2012/4/14,12267 ASBURY PARK,True
1607,42.3820412,-83.19349356,2012/4/14,12746 COYLE,True
1608,42.38340089,-83.18724358,2012/4/14,12834 STRATHMOOR,True
1609,42.38351727,-83.18731733,2012/4/14,12845 STRATHMOOR,True
1610,42.38381802,-83.19243807,2012/4/14,12903 ROBSON,True
1611,42.40614809,-83.17499713,2012/4/14,15721 CHEYENNE,True
1612,42.36749825,-83.20941809,2012/4/14,9661 GRANDMONT,True
1613,42.35058621,-83.00620167,2012/3/14,6929 DONALD PL,True
1614,42.33168114,-83.04799604,2012/3/14,287 LUTHER,True
1615,42.33168114,-83.04799604,2012/3/14,245 COLONIAL,True
1616,42.4343571,-82.97371078,2012/3/14,14477 FORDHAM,True
1617,42.41413801,-83.06163334,2012/3/14,13190 MORAN,True
1618,42.43618692,-83.1138513,2012/3/14,980 ANNIN,True
1619,42.33168322,-83.04799903,2012/1/14,260 SCHWEITZER PL,True
1620,42.42961661,-83.02312063,2014/11/26,8043 E GRIXDALE,True
1621,42.429892,-82.96991978,2014/11/26,14810 PARK GROVE,True
1622,42.44531184,-82.96805999,2014/11/26,14944 EASTBURN,True
1623,42.40004099,-82.91991766,2014/11/26,3921 NEFF,True
1624,42.43457027,-83.1072637,2014/11/25,19320 CHARLESTON,True
1625,42.36788081,-82.98256722,2014/11/25,2257 GARLAND,True
1626,42.37298081,-82.98768681,2014/11/24,3453 BEWICK,True
1627,42.34342708,-83.21430146,2014/11/24,17630 W WARREN,True
1628,42.37142523,-82.99136144,2014/11/24,9403 SCHILLER,True
1629,42.38771158,-82.9537982,2014/11/21,3897 CHALMERS,True
1630,42.39042751,-82.99940321,2014/11/21,5778 BEWICK,True
1631,42.38807109,-82.997858,2014/11/21,5395 BEWICK,True
1632,42.36793036,-82.98403753,2014/11/21,2507 BEWICK,True
1633,42.33168322,-83.04799903,2014/11/21,4664 - 66 BEACONSFIELD,True
1634,42.41397323,-82.98591114,2014/11/21,12554 WILFRED,True
1635,42.43593688,-82.98174334,2014/11/21,19160 VERONA,True
1636,42.43911141,-82.9594006,2014/11/21,15668 NOVARA,True
1637,42.37506068,-83.20598314,2014/11/21,12024 METTETAL,True
1638,42.44011159,-82.95327046,2014/11/21,16200 LIBERAL,True
1639,42.41750728,-82.96792979,2014/11/21,14827 LANNETTE,True
1640,42.41286243,-82.9832609,2014/11/21,12648 KILBOURNE,True
1641,42.41026634,-82.9907899,2014/11/21,12033 KILBOURNE,True
1642,42.4088329,-82.98543179,2014/11/21,12280 PROMENADE,True
1643,42.36407021,-83.1895735,2014/11/21,9354 LAUDER,True
1644,42.36488026,-83.19820294,2014/11/21,9394 WINTHROP,True
1645,42.35632803,-83.18951819,2014/11/21,8525 LAUDER,True
1646,42.44919157,-82.95311029,2014/11/21,16226 CARLISLE,True
1647,42.36788081,-82.98256722,2014/11/21,2257 GARLAND,True
1648,42.39352138,-82.96054827,2014/11/21,4835 NEWPORT,True
1649,42.40399101,-82.95676763,2014/11/21,5803 MARYLAND,True
1650,42.40399101,-82.95676763,2014/11/21,5803 MARYLAND,True
1651,42.40399101,-82.95676763,2014/11/21,5803 MARYLAND,True
1652,42.37990026,-82.98836781,2014/11/21,4019 HARDING,True
1653,42.37990026,-82.98836781,2014/11/21,4019 HARDING,True
1654,42.37668078,-82.98610703,2014/11/21,3755 HARDING,True
1655,42.33168322,-83.04799903,2014/11/21,4766 - 68 GARLAND,True
1656,42.37221339,-83.0276514,2014/11/21,6350 FARNSWORTH,True
1657,42.38502791,-82.98652301,2014/11/21,4648 FAIRVIEW,True
1658,42.42987126,-83.03759329,2014/11/20,18480 FILER,True
1659,42.41102339,-82.97254122,2014/11/20,13422 CHELSEA,True
1660,42.35384141,-83.18817347,2014/11/13,8212 MARLOWE,True
1661,42.36439055,-83.17517343,2014/11/13,9344 LITTLEFIELD,True
1662,42.36178063,-83.17266376,2014/11/13,9156 WARD,True
1663,42.3613105,-83.16896378,2014/11/13,9116 APPOLINE,True
1664,42.44074765,-82.99146745,2014/11/13,19717 FAIRPORT,True
1665,42.30306265,-83.13009041,2014/11/13,8779 LONGWORTH,True
1666,42.30956959,-83.13522728,2011/12/14,2383 OAKDALE,True
1667,42.33168322,-83.04799903,2011/12/14,2387 -2389 OAKDALE,True
1668,42.30971016,-83.13532753,2011/12/14,2395 OAKDALE,True
1669,42.30978967,-83.13538744,2011/12/14,2401 OAKDALE,True
1670,42.30985996,-83.13543699,2011/12/14,2407 OAKDALE,True
1671,42.33945056,-83.12639734,2011/10/14,5405 LIVERNOIS,True
1672,42.35258772,-83.14711767,2011/10/14,8041 ALPINE,True
1673,42.37985532,-82.94487147,2014/10/30,14701 KERCHEVAL,True
1674,42.37618991,-83.24130288,2011/4/14,12150 FIELDING,True
1675,42.3125831,-83.09256357,2011/4/14,3445- 47 CRANE,True
1676,42.36164005,-82.99977655,2011/4/14,2429 MAXWELL,True
1677,42.36915293,-82.99058019,2011/4/14,9358 MARIETTA,True
1678,42.33168322,-83.04799903,2011/4/14,9383 -85 JAMESON,True
1679,42.33297417,-83.09153924,2011/4/14,3121- 23 HOLCOMB,True
1680,42.36836016,-82.99403703,2011/4/14,3103 HOLCOMB,True
1681,42.33168322,-83.04799903,2011/4/14,9337- 39 ST. PAUL,True
1682,42.37134572,-82.99156078,2011/4/14,9391 SCHILLER,True
1683,42.42604108,-83.24406375,2011/5/14,18516 FIELDING,True
1684,42.44111753,-83.00008767,2011/5/14,19759 DRESDEN,True
1685,42.33168322,-83.04799903,2011/5/14,20500 ST MARYS,True
1686,42.43229106,-83.21180332,2011/5/14,19308 BILTMORE,True
1687,42.40349092,-83.26444301,2011/5/14,15502 BRAMELL,True
1688,42.34527908,-83.21652411,2011/3/14,6700 E EIGHT MILE,True
1689,42.36693594,-82.98819151,2011/4/14,9397 CARTEN,True
1690,42.36843851,-82.99666424,2011/4/14,3426 CRANE,True
1691,42.35724064,-82.99033706,2011/4/14,1231 FISCHER,True
1692,42.35963047,-82.992077,2011/4/14,1719 FISCHER,True
1693,42.37066357,-82.99102958,2011/4/14,9390 GOETHE,True
1694,42.33168322,-83.04799903,2011/4/14,2236- 40 VAN DYKE,True
1695,42.37631205,-83.24154026,2011/4/14,20505 CAPITOL,True
1696,42.37468388,-83.24507891,2011/4/14,11840 PIERSON,True
1697,42.37605049,-83.2450236,2011/4/14,12142 PIERSON,True
1698,42.37605049,-83.24628305,2011/4/14,12140 BURT RD,True
1699,42.37573015,-83.24249319,2011/4/14,12118 PATTON,True
1700,42.37390148,-83.23756373,2011/4/14,11736 VAUGHAN,True
1701,42.37336797,-83.24498788,2011/4/14,11735 PIERSON,True
1702,42.37386806,-83.24500747,2011/4/14,11775 PIERSON,True
1703,42.3741112,-83.24494294,2011/4/14,11790 PIERSON,True
1704,42.37442116,-83.24495331,2011/4/14,11820 PIERSON,True
1705,42.37423795,-83.24501784,2011/4/14,11805 PIERSON,True
1706,42.37605049,-83.23633309,2011/4/14,12138 EVERGREEN,True
1707,42.37297044,-83.23997315,2011/4/14,11670 STOUT,True
1708,42.37033056,-82.9885176,2014/10/31,3017 CADILLAC,True
1709,42.36300896,-82.9831641,2014/10/31,1544 CADILLAC,True
1710,42.44410079,-83.1534437,2014/9/18,20442 ROSELAWN,True
1711,42.3429051,-83.05616231,2014/10/30,34 TEMPLE,True
1712,42.37991524,-82.94470094,2014/10/30,14721 KERCHEVAL,True
1713,42.34387302,-83.05681911,2014/10/23,35 CHARLOTTE,True
1714,42.34299498,-83.05598255,2014/10/30,20 TEMPLE,True
1715,42.34286592,-83.05626256,2014/10/30,40 TEMPLE,True
1716,42.37985532,-82.94487147,2014/10/30,14701 KERCHEVAL,True
1717,42.38007541,-82.94432068,2014/10/30,14733 KERCHEVAL,True
1718,42.34364371,-83.05732957,2014/10/23,67 CHARLOTTE,True
1719,42.37797296,-83.2195109,2014/10/29,18718 BORMAN AKA 18900 BORMAN,True
1720,42.37797296,-83.2195109,2014/10/29,18718 BORMAN AKA 18900 BORMAN,True
1721,42.39627073,-83.25174371,2014/10/23,14842 BENTLER,True
1722,42.39597113,-83.25173334,2014/10/23,14824 BENTLER,True
1723,42.3953005,-83.24794348,2014/10/23,14644 TRINITY,True
1724,42.39675123,-83.24799303,2014/10/23,14876 TRINITY,True
1725,42.34273571,-83.05655178,2014/10/23,56 TEMPLE,True
1726,42.34278526,-83.05645153,2014/10/23,52 TEMPLE,True
1727,42.34377277,-83.0570392,2014/10/23,61 CHARLOTTE,True
1728,42.34282559,-83.05636165,2014/10/23,46 TEMPLE,True
1729,42.31535839,-83.08797761,2014/10/20,6901 W LAFAYETTE,True
1730,42.36979705,-82.97648317,2014/10/22,2230 FAIRVIEW,True
1731,42.33814618,-83.14878042,2014/10/21,8124 SMART,True
1732,42.36540801,-82.99612382,2014/10/22,2578 FISCHER,True
1733,42.33173949,-83.14650696,2014/10/21,5105 RENVILLE,True
1734,42.34194525,-83.14753365,2014/10/20,6614 MCDONALD,True
1735,42.34132532,-83.14658417,2014/10/20,6538 MATHER,True
1736,42.31244914,-83.09641382,2014/10/20,1028 MORRELL,True
1737,42.36986273,-82.9908406,2014/10/22,9372 CUTLER,True
1738,42.33168322,-83.04799903,2014/10/21,4781- 83 SPRINGWELLS,True
1739,42.33168322,-83.04799903,2014/10/21,4905 - 07 TARNOW,True
1740,42.36399301,-82.98564958,2014/10/22,9632 KERCHEVAL,True
1741,42.36909531,-82.97297102,2014/10/22,11215 KERCHEVAL,True
1742,42.35228698,-83.02575244,2014/10/20,2520 MCDOUGALL,True
1743,42.37598596,-83.08401066,2014/10/20,740 W PHILADELPHIA,True
1744,42.33168322,-83.04799903,2014/10/21,281 FORTUNE,True
1745,42.33531848,-83.14517377,2014/10/21,5692 ELMER,True
1746,42.34111906,-83.14055428,2014/10/21,6034 CHOPIN,True
1747,42.33191809,-83.13386413,2014/10/21,4756 CHOPIN,True
1748,42.305358,-83.11947443,2014/10/21,1212 CENTRAL,True
1749,42.33944941,-83.13823704,2014/10/21,5855 CECIL,True
1750,42.33423879,-83.14086424,2014/10/21,5444 CASPER,True
1751,42.32722946,-83.13598663,2014/10/21,4351 CASPER,True
1752,42.33361886,-83.12626483,2014/10/21,4742 BURTON,True
1753,42.33354972,-83.12621528,2014/10/21,4734 BURTON,True
1754,42.37339563,-83.03746999,2014/10/20,3307 E PALMER,True
1755,42.35986093,-82.99975696,2014/10/20,2227 PARKER,True
1756,42.4124914,-82.92009857,2014/10/20,5243 RADNOR,True
1757,42.38397012,-83.00653699,2014/10/20,5443 ROHNS,True
1758,42.33168322,-83.04799903,2014/10/20,9145 ST PAUL BLD 101,True
1759,42.37006323,-83.02867117,2014/10/20,3686 E WARREN,True
1760,42.36769644,-83.02821947,2014/10/20,3641 E FOREST,True
1761,42.37440157,-83.04063877,2014/10/20,1979 E GRAND BLVD,True
1762,42.39367809,-82.99420296,2014/10/20,6032 LEMAY,True
1763,42.36120794,-83.01110348,2014/10/15,660 E GRAND BLVD,True
1764,42.38692803,-83.15602827,2014/10/15,13551 WISCONSIN,True
1765,42.42563202,-83.08025652,2014/10/15,2210 E NEVADA,True
1766,42.40663089,-83.06757796,2014/10/14,12291 MACKAY,True
1767,42.40939291,-83.01646044,2014/10/14,8396 LYFORD,True
1768,42.42211756,-83.08040747,2014/10/14,17481 LUMPKIN,True
1769,42.41318046,-83.06225788,2014/10/14,13121 KLINGER,True
1770,42.40868771,-83.059164,2014/10/14,12224 KLINGER,True
1771,42.43396763,-83.0514875,2014/10/14,19137 KEYSTONE,True
1772,42.43050156,-83.11154097,2014/10/14,629 W HOLLYWOOD,True
1773,42.43886137,-83.05603325,2014/10/14,19640 HEALY,True
1774,42.40681295,-83.06961059,2014/10/14,2424 HALLECK,True
1775,42.40252646,-82.98747018,2014/10/14,11839 CORBETT,True
1776,42.41658315,-82.99378123,2014/10/14,12126 CHRISTY,True
1777,42.41326573,-83.00333019,2014/10/14,11301 CHRISTY,True
1778,42.43698891,-83.09714782,2014/10/14,19443 YACAMA,True
1779,42.41934056,-83.06033357,2014/10/14,17136 SUNSET,True
1780,42.41210769,-83.06026328,2014/10/14,12596 MORAN,True
1781,42.4357214,-83.05024304,2014/10/14,19258 MOENART,True
1782,42.40517556,-82.97973952,2014/10/14,12585 CORBETT,True
1783,42.40513293,-82.97968191,2014/10/14,12582 CORBETT,True
1784,42.41773543,-82.97783941,2014/10/14,13375 FLANDERS,True
1785,42.40198259,-82.97653272,2014/10/14,12638 EVANSTON,True
1786,42.40920279,-82.97089115,2014/10/14,13446 ELMDALE,True
1787,42.40784309,-82.97181182,2014/10/14,13356 CORBETT,True
1788,42.41529144,-83.07696791,2014/10/14,13967 FLEMING,True
1789,42.38558792,-83.02549318,2014/10/14,6444 FIELD,True
1790,42.3112185,-83.10350381,2014/10/15,1130 MILITARY,True
1791,42.42035918,-83.05281723,2014/10/14,17203 FENELON,True
1792,42.33168322,-83.04799903,2014/10/15,8611 ST MARYS,True
1793,42.33168322,-83.04799903,2014/10/15,15459 E STATE FAIR,True
1794,42.38110785,-83.19124776,2014/10/16,12675 TERRY,True
1795,42.44635005,-83.10522301,2014/10/16,20530 EXETER,True
1796,42.395902,-83.0422704,2014/10/14,5900 MARCUS,True
1797,42.40500272,-83.07015101,2014/10/14,2098 MCPHERSON,True
1798,42.43846844,-83.07940729,2014/10/14,19647 FLEMING,True
1799,42.44642149,-83.070953,2014/10/14,20488 GALLAGHER,True
